[{"chain":"Countdown","id":188,"name":"Amberley","address":"Cnr Carters and Amberley Beach Roads, Amberley","latitude":-43.16667,"longitude":172.73333,"region":"Amberley"},{"chain":"Countdown","id":2391793,"name":"Andersons Bay","address":"560 Andersons Bay Road, South Dunedin, Andy Bay","latitude":null,"longitude":null,"region":"Andy Bay"},{"chain":"New World","id":288,"name":"Aokautere","address":"194-200 Ruapehu Drive, Summerhill, Aokautere, 4410","latitude":-40.387171,"longitude":175.639157,"region":"Aokautere","latestSnapshot":{"date":"2021-09-24T19:06:32.704+12:00","slots":{"2021-09-24":0,"2021-09-25":28,"2021-09-26":31,"2021-09-27":32,"2021-09-28":32,"2021-09-29":32,"2021-09-30":32,"2021-10-01":32}}},{"chain":"Countdown","id":19,"name":"Ashburton","address":"Cnr East and Peter Streets, Ashburton","latitude":-43.89834,"longitude":171.73011,"region":"Ashburton"},{"chain":"SuperValue","id":468847,"name":"Tinwald","address":"113 Archibald Street, Tinwald, Ashburton 7700","latitude":-43.920182,"longitude":171.7204632,"region":"Ashburton","latestSnapshot":{"date":"2021-09-24T19:06:20.148+12:00","slots":{"2021-09-25":10,"2021-09-26":9,"2021-09-27":10,"2021-09-28":10,"2021-09-29":10,"2021-09-30":10,"2021-10-01":10,"2021-10-02":10,"2021-10-03":9}}},{"chain":"Countdown","id":2,"name":"Ashburton South","address":"Cnr South St and East St, Ashburton, Ashburton South","latitude":null,"longitude":null,"region":"Ashburton South"},{"chain":"Countdown","id":3,"name":"Auckland Airport","address":"George Bolt Memorial & John Goulter Dr, Mangere, AKL Airport CC, AKL Airport, Auckland","latitude":null,"longitude":null,"region":"Auckland"},{"chain":"Countdown","id":4,"name":"Auckland Quay Street","address":"76 Quay Street, Auckland City, Auckland","latitude":-36.845251,"longitude":174.7728202,"region":"Auckland"},{"chain":"Countdown","id":5,"name":"Aviemore Drive","address":"Highland Park Shopping Centre, Pakuranga, AVD, Aviemore Drive, Auckland","latitude":-36.86667,"longitude":174.76667,"region":"Auckland"},{"chain":"Countdown","id":8,"name":"Beachlands","address":"129 Beachlands Road, Beachlands, Auckland","latitude":-36.889609,"longitude":175.0108469,"region":"Auckland"},{"chain":"Countdown","id":1,"name":"Blockhouse Bay","address":"19-29 Donovan Street, Blockhouse Bay, Auckland","latitude":-36.9224241,"longitude":174.7031294,"region":"Auckland"},{"chain":"Countdown","id":12,"name":"Botany","address":"cnr Te Irirangi & Ti Rakau Drives, Botany Downs CC, Botany Downs, Auckland","latitude":-36.90596,"longitude":174.91788,"region":"Auckland"},{"chain":"Countdown","id":15,"name":"Browns Bay","address":"Cnr Anzac & Clyde Road, Browns Bay, Auckland","latitude":-36.70819,"longitude":174.75019,"region":"Auckland"},{"chain":"Countdown","id":32,"name":"Glenfield","address":"Cnr Bentley Ave & Glenfield Rd, Glenfield, Auckland","latitude":-36.78262,"longitude":174.72107,"region":"Auckland"},{"chain":"Countdown","id":156,"name":"Greenlane","address":"326 Great South Road, Greenlane, Auckland","latitude":-36.8879933,"longitude":174.790683,"region":"Auckland"},{"chain":"Countdown","id":33,"name":"Grey Lynn","address":"271 Richmond Road, Grey Lynn, Auckland","latitude":-36.8543509,"longitude":174.7318734,"region":"Auckland"},{"chain":"Countdown","id":37,"name":"Helensville","address":"43 Commercial Road, Helensville, Auckland","latitude":-36.6772898,"longitude":174.4511567,"region":"Auckland"},{"chain":"Countdown","id":38,"name":"Henderson","address":"West City Mall, Catherine St, Henderson, Auckland","latitude":-36.8782,"longitude":174.61019,"region":"Auckland"},{"chain":"Countdown","id":39,"name":"Highland Park","address":"507 Pakuranga Highway, Highland Park CC, Highland Park, Auckland","latitude":-36.8982,"longitude":174.90019,"region":"Auckland"},{"chain":"Countdown","id":40,"name":"Hobsonville","address":"124 Hobsonville Road, Hobsonville, Auckland","latitude":-36.7979235,"longitude":174.6485436,"region":"Auckland"},{"chain":"Countdown","id":42,"name":"Howick","address":"35 Cook St, Howick, Auckland","latitude":-36.896492,"longitude":174.9332955,"region":"Auckland"},{"chain":"Countdown","id":49,"name":"Kelston","address":"Cnr Great North Rd & West Coast Rd, Kelston, Auckland","latitude":-36.8982,"longitude":174.66019,"region":"Auckland"},{"chain":"Countdown","id":152,"name":"Lincoln Road","address":"185 - 187 Universal Drive, Lincoln Road, Auckland","latitude":-36.8570311,"longitude":174.6311852,"region":"Auckland"},{"chain":"Countdown","id":55,"name":"Lynfield","address":"570 Hillsborough Road, Lynfield, Auckland","latitude":-36.9252865,"longitude":174.7223726,"region":"Auckland"},{"chain":"Countdown","id":56,"name":"Lynnmall","address":"Lynnmall Shopping Centre, Great North Road, Lynnmall, Auckland","latitude":-36.86667,"longitude":174.76667,"region":"Auckland"},{"chain":"Countdown","id":58,"name":"Mairangi Bay","address":"3 Ramsgate Terrace, Mairangi Bay, Auckland","latitude":-36.7397891,"longitude":174.7531201,"region":"Auckland"},{"chain":"Countdown","id":59,"name":"Mangere East","address":"359 Massey Road, Mangere East, Auckland","latitude":-36.9665222,"longitude":174.8251311,"region":"Auckland"},{"chain":"Countdown","id":60,"name":"Manukau","address":"652 Great South Road, Manukau, Auckland","latitude":-36.9870934,"longitude":174.8819762,"region":"Auckland"},{"chain":"Countdown","id":158,"name":"Manukau Mall","address":"Shop 99 Manukau City Centre, Manukau, Auckland","latitude":-36.99282,"longitude":174.87986,"region":"Auckland"},{"chain":"Countdown","id":61,"name":"Manurewa","address":"227 Browns Road, Manurewa, Auckland","latitude":-37.0178153,"longitude":174.8648312,"region":"Auckland"},{"chain":"Countdown","id":64,"name":"Meadowbank","address":"35-47 St Johns Rd, Meadowbank, Auckland","latitude":-36.8756916,"longitude":174.8274954,"region":"Auckland"},{"chain":"Countdown","id":65,"name":"Meadowlands","address":"Cnr Meadowlands Drive & Whitford Road, Howick, Meadowlands, Auckland","latitude":-36.86667,"longitude":174.76667,"region":"Auckland"},{"chain":"Countdown","id":66,"name":"Milford","address":"143 Kitchener Road, Milford, Auckland","latitude":-36.7714691,"longitude":174.7650639,"region":"Auckland"},{"chain":"Countdown","id":70,"name":"Mt Eden","address":"Cnr Valley & Dominion Roads, Mt Eden, Auckland","latitude":-36.88158,"longitude":174.76204,"region":"Auckland"},{"chain":"Countdown","id":69,"name":"Mt Roskill","address":"112 Stoddard Rd, Mt Roskill, Auckland","latitude":-36.9038332,"longitude":174.7270145,"region":"Auckland"},{"chain":"Countdown","id":71,"name":"Mt Wellington","address":"Cnr Penrose Rd & Mt Wellington Highway, Mt Wgtn, Mt Wellington, Auckland","latitude":-36.8882,"longitude":174.84019,"region":"Auckland"},{"chain":"Countdown","id":78,"name":"Newmarket","address":"277 Broadway, Newmarket, Auckland","latitude":-36.870857,"longitude":174.7759138,"region":"Auckland"},{"chain":"Countdown","id":79,"name":"Northcote","address":"Pearn Crescent, Northcote Auckland, Northcote, Auckland","latitude":-36.8015833,"longitude":174.7449787,"region":"Auckland"},{"chain":"Countdown","id":80,"name":"Northwest","address":"7 Fred Taylor Drive, Northwest Town Centre, Massy, OLDNorthwest, Northwest, Auckland","latitude":-36.86667,"longitude":174.76667,"region":"Auckland"},{"chain":"Countdown","id":83,"name":"Onehunga","address":"cnr Church & Selwyn Streets, Onehunga, Auckland","latitude":-36.9182,"longitude":174.78019,"region":"Auckland"},{"chain":"Countdown","id":88,"name":"Pakuranga","address":"Pakuranga Town Centre, Pakuranga, Auckland","latitude":-36.9088336,"longitude":174.8808301,"region":"Auckland"},{"chain":"Countdown","id":92,"name":"Papatoetoe","address":"Hunters Plaza, 217 Great South Road, Papatoetoe, Auckland","latitude":-36.970995,"longitude":174.8602304,"region":"Auckland"},{"chain":"Countdown","id":153,"name":"Point Chevalier","address":"13 Point Chevalier Road, Point Chevalier, Pt Chevalier, Auckland PtC, Auckland","latitude":-36.86667,"longitude":174.76667,"region":"Auckland"},{"chain":"Countdown","id":96,"name":"Ponsonby","address":"4 Williamson Avenue, Ponsonby, Auckland","latitude":-36.858408,"longitude":174.7490439,"region":"Auckland"},{"chain":"Countdown","id":104,"name":"Roselands","address":"Roselands Mall, cnr Great South and Subway Roads, Roselands, Auckland","latitude":-36.86667,"longitude":174.76667,"region":"Auckland"},{"chain":"Countdown","id":112,"name":"St Johns","address":"134 - 144 Felton Mathew Avenue, St Johns, Auckland","latitude":-36.8682,"longitude":174.84019,"region":"Auckland"},{"chain":"Countdown","id":113,"name":"St Lukes","address":"St Luke Shopping Centre, cnr St Lukes Road & Morningside Drive, St Lukes, Auckland","latitude":null,"longitude":null,"region":"Auckland"},{"chain":"Countdown","id":116,"name":"Sunnynook","address":"Cnr Sycamore Dr & Sunnynook Rd, Sunnynook, Auckland","latitude":-36.75333,"longitude":174.73866,"region":"Auckland"},{"chain":"Countdown","id":159,"name":"Takanini","address":"228 Great South Rd, Takanini, Auckland","latitude":-37.0518427,"longitude":174.9304178,"region":"Auckland"},{"chain":"Countdown","id":117,"name":"Takapuna","address":"Barry's Point Rd, Takapuna, Auckland","latitude":-36.7914619,"longitude":174.7649997,"region":"Auckland"},{"chain":"Countdown","id":120,"name":"Te Atatu North","address":"Te Atatu Road, Te Atatu, Te Atatu Nth, Te Atatu N, Auckland","latitude":-36.83333,"longitude":174.65,"region":"Auckland"},{"chain":"Countdown","id":121,"name":"Te Atatu South","address":"Cnr Edmonton & Te Atatu Rds, Te Atatu South, Te Atatu Sth, Auckland","latitude":-36.83333,"longitude":174.65,"region":"Auckland"},{"chain":"Countdown","id":126,"name":"Three Kings","address":"532 Mount Albert Road, Three Kings, Auckland","latitude":-36.9102556,"longitude":174.7676487,"region":"Auckland"},{"chain":"Countdown","id":141,"name":"Whangaparaoa","address":"Cnr Whangaparaoa Rd & Wade Dr, Whangaparaoa, Auckland","latitude":-36.63333,"longitude":174.76667,"region":"Auckland"},{"chain":"FreshChoice","id":331,"name":"Glen Eden","address":"142 West Coast Road, Auckland 0602","latitude":-36.9112081,"longitude":174.6542198,"region":"Auckland","latestSnapshot":{"date":"2021-09-24T19:05:43.864+12:00","slots":{"2021-09-25":0,"2021-09-26":0,"2021-09-27":15,"2021-09-28":15,"2021-09-29":15,"2021-09-30":14}}},{"chain":"FreshChoice","id":334,"name":"Otahuhu","address":"29 Hall Avenue, Otahuhu, Auckland 1062","latitude":-36.9449493,"longitude":174.8427739,"region":"Auckland","latestSnapshot":{"date":"2021-09-24T19:05:54.645+12:00","slots":{"2021-09-25":13,"2021-09-26":0,"2021-09-27":13,"2021-09-28":13,"2021-09-29":13,"2021-09-30":13}}},{"chain":"FreshChoice","id":336,"name":"Ranui","address":"433 Swanson Road,, Ranui, Auckland 0612","latitude":-36.8637622,"longitude":174.6017972,"region":"Auckland","latestSnapshot":{"date":"2021-09-24T19:05:57.782+12:00","slots":{"2021-09-25":14,"2021-09-26":14,"2021-09-27":14,"2021-09-28":14,"2021-09-29":14,"2021-09-30":13}}},{"chain":"New World","id":320,"name":"Albany","address":"219 Don McKinnon Drive, Albany, Auckland, 0632","latitude":-36.728207,"longitude":174.710519,"region":"Auckland","latestSnapshot":{"date":"2021-09-24T19:07:14.719+12:00","slots":{"2021-09-24":0,"2021-09-25":6,"2021-09-26":11,"2021-09-27":21,"2021-09-28":20,"2021-09-29":23,"2021-09-30":22,"2021-10-01":24}}},{"chain":"New World","id":285,"name":"Birkenhead","address":"180 Mokoia Road, Chatswood, Auckland, 0626","latitude":-36.811428,"longitude":174.711486,"region":"Auckland","latestSnapshot":{"date":"2021-09-24T19:07:38.198+12:00","slots":{"2021-09-24":0,"2021-09-25":0,"2021-09-26":21,"2021-09-27":35,"2021-09-28":44,"2021-09-29":42,"2021-09-30":45,"2021-10-01":42}}},{"chain":"New World","id":258,"name":"Botany","address":"588 Chapel Road, East Tamaki, Auckland, 2013","latitude":-36.933874,"longitude":174.911485,"region":"Auckland","latestSnapshot":{"date":"2021-09-24T19:06:15.979+12:00","slots":{"2021-09-24":0,"2021-09-25":52,"2021-09-26":55,"2021-09-27":77,"2021-09-28":74,"2021-09-29":76,"2021-09-30":77,"2021-10-01":77}}},{"chain":"New World","id":265,"name":"Browns Bay","address":"2 Inverness Road, Auckland, 0630","latitude":-36.715961,"longitude":174.747287,"region":"Auckland","latestSnapshot":{"date":"2021-09-24T19:06:17.409+12:00","slots":{"2021-09-24":0,"2021-09-25":2,"2021-09-26":13,"2021-09-27":19,"2021-09-28":21,"2021-09-29":24,"2021-09-30":23,"2021-10-01":22}}},{"chain":"New World","id":305,"name":"Devonport","address":"35 Bartley Terrace, Devonport, Auckland, 0624","latitude":-36.82951,"longitude":174.796193,"region":"Auckland","latestSnapshot":{"date":"2021-09-24T19:05:53.750+12:00","slots":{"2021-09-24":0,"2021-09-25":3,"2021-09-26":14,"2021-09-27":18,"2021-09-28":18,"2021-09-29":22,"2021-09-30":26,"2021-10-01":27}}},{"chain":"New World","id":251,"name":"Eastridge","address":"209 Kepa Road, Mission Bay, Auckland, 1071","latitude":-36.860989,"longitude":174.829234,"region":"Auckland","latestSnapshot":{"date":"2021-09-24T19:06:21.849+12:00","slots":{"2021-09-24":0,"2021-09-25":31,"2021-09-26":69,"2021-09-27":72,"2021-09-28":82,"2021-09-29":77,"2021-09-30":80,"2021-10-01":78}}},{"chain":"New World","id":268,"name":"Hobsonville","address":"120 Hobsonville Road, Hobsonville, Auckland, 0618","latitude":-36.79915,"longitude":174.64505,"region":"Auckland","latestSnapshot":{"date":"2021-09-24T19:06:05.458+12:00","slots":{"2021-09-24":0,"2021-09-25":10,"2021-09-26":0,"2021-09-27":12,"2021-09-28":12,"2021-09-29":9,"2021-09-30":11,"2021-10-01":10}}},{"chain":"New World","id":303,"name":"Howick","address":"77 Union Road, Howick, Auckland, 2014","latitude":-36.903857,"longitude":174.925067,"region":"Auckland","latestSnapshot":{"date":"2021-09-24T19:07:21.754+12:00","slots":{"2021-09-24":0,"2021-09-25":67,"2021-09-26":84,"2021-09-27":81,"2021-09-28":81,"2021-09-29":80,"2021-09-30":84,"2021-10-01":76}}},{"chain":"New World","id":314,"name":"Kumeu","address":"110 Main Road, Auckland, 0810","latitude":-36.774933,"longitude":174.553672,"region":"Auckland","latestSnapshot":{"date":"2021-09-24T19:05:59.286+12:00","slots":{"2021-09-24":0,"2021-09-25":8,"2021-09-26":35,"2021-09-27":36,"2021-09-28":48,"2021-09-29":45,"2021-09-30":50,"2021-10-01":50}}},{"chain":"New World","id":282,"name":"Long Bay","address":"55B Glenvar Ridge Road, Long Bay, Auckland, 0630","latitude":-36.684964,"longitude":174.73973,"region":"Auckland","latestSnapshot":{"date":"2021-09-24T19:07:08.843+12:00","slots":{"2021-09-24":0,"2021-09-25":4,"2021-09-26":12,"2021-09-27":24,"2021-09-28":29,"2021-09-29":28,"2021-09-30":28,"2021-10-01":28}}},{"chain":"New World","id":304,"name":"Metro Auckland","address":"125 Queen Street, Auckland, 1010","latitude":-36.846405,"longitude":174.765935,"region":"Auckland","latestSnapshot":{"date":"2021-09-24T19:06:23.345+12:00","slots":{"2021-09-24":0,"2021-09-25":28,"2021-09-26":34,"2021-09-27":35,"2021-09-28":35,"2021-09-29":35,"2021-09-30":35,"2021-10-01":35}}},{"chain":"New World","id":267,"name":"Milford","address":"141 Kitchener Road, Milford, Auckland, 0620","latitude":-36.772298,"longitude":174.764805,"region":"Auckland","latestSnapshot":{"date":"2021-09-24T19:07:26.105+12:00","slots":{"2021-09-24":0,"2021-09-25":13,"2021-09-26":21,"2021-09-27":54,"2021-09-28":56,"2021-09-29":55,"2021-09-30":56,"2021-10-01":56}}},{"chain":"New World","id":272,"name":"Mt Roskill","address":"53 May Road, Mount Roskill, Auckland, 1041","latitude":-36.908622,"longitude":174.734362,"region":"Auckland","latestSnapshot":{"date":"2021-09-24T19:07:17.658+12:00","slots":{"2021-09-24":0,"2021-09-25":11,"2021-09-26":40,"2021-09-27":42,"2021-09-28":50,"2021-09-29":45,"2021-09-30":48,"2021-10-01":45}}},{"chain":"New World","id":234,"name":"New Lynn","address":"2-6 Crown Lynn Place, New Lynn, Auckland, 0600","latitude":-36.910865,"longitude":174.685569,"region":"Auckland","latestSnapshot":{"date":"2021-09-24T19:07:31.337+12:00","slots":{"2021-09-24":0,"2021-09-25":0,"2021-09-26":0,"2021-09-27":2,"2021-09-28":30,"2021-09-29":39,"2021-09-30":42,"2021-10-01":46}}},{"chain":"New World","id":321,"name":"Ormiston","address":"240 Ormiston Road, Ormiston, Auckland, 2019","latitude":-36.964726,"longitude":174.912703,"region":"Auckland","latestSnapshot":{"date":"2021-09-24T19:07:42.603+12:00","slots":{"2021-09-24":0,"2021-09-25":2,"2021-09-26":8,"2021-09-27":11,"2021-09-28":11,"2021-09-29":10,"2021-09-30":12,"2021-10-01":9}}},{"chain":"New World","id":233,"name":"Papakura","address":"29-31 East Street, Auckland, 2110","latitude":-37.064268,"longitude":174.941101,"region":"Auckland","latestSnapshot":{"date":"2021-09-24T19:07:27.759+12:00","slots":{"2021-09-24":0,"2021-09-25":0,"2021-09-26":16,"2021-09-27":26,"2021-09-28":26,"2021-09-29":27,"2021-09-30":28,"2021-10-01":38}}},{"chain":"New World","id":280,"name":"Papatoetoe","address":"65 St Georges Street, Papatoetoe, Auckland, 2025","latitude":-36.9802,"longitude":174.853287,"region":"Auckland","latestSnapshot":{"date":"2021-09-24T19:07:13.314+12:00","slots":{"2021-09-24":0,"2021-09-25":7,"2021-09-26":15,"2021-09-27":24,"2021-09-28":26,"2021-09-29":25,"2021-09-30":26,"2021-10-01":26}}},{"chain":"New World","id":284,"name":"Pukekohe","address":"17 Paerata Road, Pukekohe, Auckland, 2120","latitude":-37.18988,"longitude":174.90306,"region":"Auckland","latestSnapshot":{"date":"2021-09-24T19:07:47.622+12:00","slots":{"2021-09-24":0,"2021-09-25":2,"2021-09-26":14,"2021-09-27":51,"2021-09-28":47,"2021-09-29":53,"2021-09-30":52,"2021-10-01":55}}},{"chain":"New World","id":263,"name":"Shore City","address":"52-56 Anzac Street, Takapuna, Auckland, 0622","latitude":-36.78756,"longitude":174.77005,"region":"Auckland","latestSnapshot":{"date":"2021-09-24T19:06:30.615+12:00","slots":{"2021-09-24":0,"2021-09-25":56,"2021-09-26":55,"2021-09-27":56,"2021-09-28":56,"2021-09-29":56,"2021-09-30":56,"2021-10-01":56}}},{"chain":"New World","id":264,"name":"Southmall","address":"187 Great South Road, Manurewa, Auckland, 2102","latitude":-37.02246,"longitude":174.89719,"region":"Auckland","latestSnapshot":{"date":"2021-09-24T19:06:44.548+12:00","slots":{"2021-09-24":0,"2021-09-25":0,"2021-09-26":0,"2021-09-27":0,"2021-09-28":0,"2021-09-29":0,"2021-09-30":0,"2021-10-01":0}}},{"chain":"New World","id":247,"name":"Stonefields","address":"100 Lunn Avenue, Mt Wellington, Auckland, 1072","latitude":-36.890274,"longitude":174.831971,"region":"Auckland","latestSnapshot":{"date":"2021-09-24T19:06:52.949+12:00","slots":{"2021-09-24":0,"2021-09-25":1,"2021-09-26":17,"2021-09-27":27,"2021-09-28":24,"2021-09-29":32,"2021-09-30":32,"2021-10-01":33}}},{"chain":"New World","id":326,"name":"Victoria Park","address":"2 College Hill, Freemans Bay, Auckland, 1011","latitude":-36.848637,"longitude":174.751367,"region":"Auckland","latestSnapshot":{"date":"2021-09-24T19:07:10.278+12:00","slots":{"2021-09-24":0,"2021-09-25":15,"2021-09-26":42,"2021-09-27":47,"2021-09-28":53,"2021-09-29":58,"2021-09-30":58,"2021-10-01":57}}},{"chain":"New World","id":292,"name":"Whangaparaoa","address":"588 Whangaparaoa Road, Stanmore Bay, Auckland, 0932","latitude":-36.628789,"longitude":174.732596,"region":"Auckland","latestSnapshot":{"date":"2021-09-24T19:06:54.883+12:00","slots":{"2021-09-24":0,"2021-09-25":0,"2021-09-26":11,"2021-09-27":10,"2021-09-28":9,"2021-09-29":9,"2021-09-30":6,"2021-10-01":11}}},{"chain":"PAK'nSAVE","id":227,"name":"Albany","address":"Don McKinnon Drive, Albany, Auckland, 0632","latitude":-36.729975,"longitude":174.706725,"region":"Auckland","latestSnapshot":{"date":"2021-09-24T19:06:01.942+12:00","slots":{"2021-09-24":0,"2021-09-25":0,"2021-09-26":0,"2021-09-27":0,"2021-09-28":18,"2021-09-29":54,"2021-09-30":67,"2021-10-01":57}}},{"chain":"PAK'nSAVE","id":216,"name":"Botany","address":"501 Ti Rakau Drive, Northpark, Auckland, 2013","latitude":-36.930652,"longitude":174.913004,"region":"Auckland","latestSnapshot":{"date":"2021-09-24T19:06:06.885+12:00","slots":{"2021-09-24":0,"2021-09-25":0,"2021-09-26":25,"2021-09-27":59,"2021-09-28":67,"2021-09-29":65,"2021-09-30":56,"2021-10-01":74}}},{"chain":"PAK'nSAVE","id":202,"name":"Clendon","address":"16 Robert Ross Place, Clendon Park, Auckland, 2103","latitude":-37.03242,"longitude":174.867278,"region":"Auckland","latestSnapshot":{"date":"2021-09-24T19:06:09.687+12:00","slots":{"2021-09-24":0,"2021-09-25":0,"2021-09-26":29,"2021-09-27":29,"2021-09-28":28,"2021-09-29":30,"2021-09-30":30,"2021-10-01":30}}},{"chain":"PAK'nSAVE","id":223,"name":"Glen Innes","address":"182 Apirana Avenue, Glen Innes, Auckland, 1072","latitude":-36.875918,"longitude":174.855148,"region":"Auckland","latestSnapshot":{"date":"2021-09-24T19:06:05.452+12:00","slots":{"2021-09-24":0,"2021-09-25":0,"2021-09-26":1,"2021-09-27":0,"2021-09-28":25,"2021-09-29":35,"2021-09-30":35,"2021-10-01":46}}},{"chain":"PAK'nSAVE","id":218,"name":"Lincoln Road","address":"202 Lincoln Road, Henderson, Auckland, 0610","latitude":-36.857794,"longitude":174.627968,"region":"Auckland","latestSnapshot":{"date":"2021-09-24T19:06:24.891+12:00","slots":{"2021-09-24":0,"2021-09-25":0,"2021-09-26":1,"2021-09-27":0,"2021-09-28":4,"2021-09-29":20,"2021-09-30":36,"2021-10-01":53}}},{"chain":"PAK'nSAVE","id":204,"name":"Mangere","address":"44 Orly Avenue, Mangere, Auckland, 2022","latitude":-36.968516,"longitude":174.796863,"region":"Auckland","latestSnapshot":{"date":"2021-09-24T19:05:56.151+12:00","slots":{"2021-09-24":0,"2021-09-25":0,"2021-09-26":0,"2021-09-27":3,"2021-09-28":12,"2021-09-29":15,"2021-09-30":18,"2021-10-01":20}}},{"chain":"PAK'nSAVE","id":201,"name":"Manukau","address":"6 Cavendish Drive, Manukau City, Auckland, 2104","latitude":-36.987929,"longitude":174.880604,"region":"Auckland","latestSnapshot":{"date":"2021-09-24T19:06:28.665+12:00","slots":{"2021-09-24":0,"2021-09-25":0,"2021-09-26":14,"2021-09-27":29,"2021-09-28":26,"2021-09-29":28,"2021-09-30":29,"2021-10-01":29}}},{"chain":"PAK'nSAVE","id":228,"name":"Mt Albert","address":"1167-1177 New North Road, Auckland, 1025","latitude":-36.89305,"longitude":174.70624,"region":"Auckland","latestSnapshot":{"date":"2021-09-24T19:06:08.316+12:00","slots":{"2021-09-24":0,"2021-09-25":0,"2021-09-26":0,"2021-09-27":0,"2021-09-28":11,"2021-09-29":25,"2021-09-30":30,"2021-10-01":28}}},{"chain":"PAK'nSAVE","id":206,"name":"Ormiston","address":"1 Bellingham Road, Flat Bush, Auckland, 2019","latitude":-36.965078,"longitude":174.914819,"region":"Auckland","latestSnapshot":{"date":"2021-09-24T19:05:54.575+12:00","slots":{"2021-09-24":0,"2021-09-25":0,"2021-09-26":0,"2021-09-27":0,"2021-09-28":0,"2021-09-29":1,"2021-09-30":10,"2021-10-01":15}}},{"chain":"PAK'nSAVE","id":229,"name":"Papakura","address":"331-345 Great South Road, Takanini, Auckland, 2110","latitude":-37.053393,"longitude":174.93096,"region":"Auckland","latestSnapshot":{"date":"2021-09-24T19:05:53.015+12:00","slots":{"2021-09-24":0,"2021-09-25":0,"2021-09-26":0,"2021-09-27":1,"2021-09-28":0,"2021-09-29":7,"2021-09-30":11,"2021-10-01":25}}},{"chain":"PAK'nSAVE","id":190,"name":"Royal Oak","address":"691 Manukau Road, Royal Oak, Auckland, 1023","latitude":-36.91014,"longitude":174.77342,"region":"Auckland","latestSnapshot":{"date":"2021-09-24T19:06:22.041+12:00","slots":{"2021-09-24":0,"2021-09-25":16,"2021-09-26":79,"2021-09-27":103,"2021-09-28":111,"2021-09-29":106,"2021-09-30":112,"2021-10-01":93}}},{"chain":"PAK'nSAVE","id":209,"name":"Silverdale","address":"20 Hibiscus Coast Highway, Silverdale, Auckland, 0932","latitude":-36.620413,"longitude":174.672975,"region":"Auckland","latestSnapshot":{"date":"2021-09-24T19:05:51.363+12:00","slots":{"2021-09-24":0,"2021-09-25":0,"2021-09-26":0,"2021-09-27":0,"2021-09-28":0,"2021-09-29":8,"2021-09-30":24,"2021-10-01":31}}},{"chain":"PAK'nSAVE","id":214,"name":"Sylvia Park","address":"286 Mt Wellington Highway, Mt Wellington, Auckland, 1060","latitude":-36.913347,"longitude":174.84009,"region":"Auckland","latestSnapshot":{"date":"2021-09-24T19:05:45.105+12:00","slots":{"2021-09-24":0,"2021-09-25":0,"2021-09-26":0,"2021-09-27":23,"2021-09-28":35,"2021-09-29":51,"2021-09-30":45,"2021-10-01":54}}},{"chain":"PAK'nSAVE","id":213,"name":"Westgate","address":"17-19 Fred Taylor Drive, Massey, Auckland, 0814","latitude":-36.820257,"longitude":174.608696,"region":"Auckland","latestSnapshot":{"date":"2021-09-24T19:06:20.618+12:00","slots":{"2021-09-24":0,"2021-09-25":0,"2021-09-26":0,"2021-09-27":48,"2021-09-28":77,"2021-09-29":70,"2021-09-30":96,"2021-10-01":138}}},{"chain":"SuperValue","id":468828,"name":"Palomino","address":"4/138 Sturges Road, Henderson, Auckland 0612","latitude":-36.8735243,"longitude":174.620833,"region":"Auckland","latestSnapshot":{"date":"2021-09-24T19:05:49.598+12:00","slots":{"2021-09-25":7,"2021-09-26":7,"2021-09-27":7,"2021-09-28":7,"2021-09-29":7,"2021-09-30":7,"2021-10-01":7,"2021-10-02":7,"2021-10-03":7}}},{"chain":"SuperValue","id":468833,"name":"Titirangi","address":"429 Titirangi Road, Titirangi, Auckland 0604","latitude":-36.9375897,"longitude":174.6564166,"region":"Auckland","latestSnapshot":{"date":"2021-09-24T19:05:56.710+12:00","slots":{"2021-09-25":3,"2021-09-26":2,"2021-09-27":3,"2021-09-28":3,"2021-09-29":3,"2021-09-30":3,"2021-10-01":3,"2021-10-02":3}}},{"chain":"Countdown","id":10,"name":"Birkenhead","address":"Cnr Highbury Pass & Birkenhead Avenue, Auckland, Birkenhead","latitude":-36.8120086,"longitude":174.7260944,"region":"Birkenhead"},{"chain":"Countdown","id":11,"name":"Blenheim","address":"51 Seymour St, Blenheim","latitude":-41.5138658,"longitude":173.9546008,"region":"Blenheim"},{"chain":"Countdown","id":175,"name":"Redwoodtown","address":"Cnr Weld St and Albama Rd, Redwoodtown, Blenheim","latitude":-41.51603,"longitude":173.9528,"region":"Blenheim"},{"chain":"Countdown","id":110,"name":"Springlands","address":"133 Middle Renwick Road, Springlands, Blenheim","latitude":-41.5092371,"longitude":173.9330913,"region":"Blenheim"},{"chain":"Countdown","id":168,"name":"Cable Car Lane","address":"280-284 Lambton Quay, Wellington, Cable Car Lane","latitude":-41.2845454,"longitude":174.775369,"region":"Cable Car Lane"},{"chain":"Countdown","id":17,"name":"Cambridge","address":"Cnr Queen & Empire Streets, Cambridge","latitude":null,"longitude":null,"region":"Cambridge"},{"chain":"FreshChoice","id":358,"name":"Leamington","address":"46 Burns Street, Cambridge, Waikato 3432","latitude":-37.9055129,"longitude":175.4733722,"region":"Cambridge","latestSnapshot":{"date":"2021-09-24T19:05:48.967+12:00","slots":{"2021-09-25":0,"2021-09-26":0,"2021-09-27":12,"2021-09-28":12,"2021-09-29":12,"2021-09-30":12}}},{"chain":"New World","id":240,"name":"Cambridge","address":"14 Anzac Street, Cambridge, 3434","latitude":-37.893425,"longitude":175.472202,"region":"Cambridge","latestSnapshot":{"date":"2021-09-24T19:07:50.561+12:00","slots":{"2021-09-24":0,"2021-09-25":16,"2021-09-26":24,"2021-09-27":30,"2021-09-28":31,"2021-09-29":31,"2021-09-30":32,"2021-10-01":32}}},{"chain":"New World","id":300,"name":"Rangiora","address":"10 Good St, Rangiora, Canterbury, 7400","latitude":-43.3025816,"longitude":172.5947489,"region":"Canterbury","latestSnapshot":{"date":"2021-09-24T19:05:50.165+12:00","slots":{"2021-09-24":0,"2021-09-25":74,"2021-09-26":81,"2021-09-27":91,"2021-09-28":92,"2021-09-29":92,"2021-09-30":90,"2021-10-01":92}}},{"chain":"New World","id":297,"name":"Carterton","address":"60 High Street South, Carterton, 5713","latitude":-41.026035,"longitude":175.526349,"region":"Carterton","latestSnapshot":{"date":"2021-09-24T19:07:29.187+12:00","slots":{"2021-09-24":0,"2021-09-25":39,"2021-09-26":46,"2021-09-27":44,"2021-09-28":45,"2021-09-29":46,"2021-09-30":46,"2021-10-01":45}}},{"chain":"Countdown","id":35,"name":"Christchurch Airport","address":"530 - 546A Memorial Ave, Christchurch, Chch Airport","latitude":-43.4899122,"longitude":172.5462036,"region":"Chch Airport"},{"chain":"Countdown","id":6,"name":"Avonhead","address":"Cnr Withells Road & Merrin Street, Avonhead, Christchurch","latitude":-43.53333,"longitude":172.63333,"region":"Christchurch"},{"chain":"Countdown","id":178,"name":"Eastgate","address":"cnr Linwood Ave & Buckleys Rd, Eastgate, Aranui, Christchurch","latitude":-43.53333,"longitude":172.63333,"region":"Christchurch"},{"chain":"Countdown","id":41,"name":"Hornby","address":"Cnr Main Sth Rd & Chappie Place, Hornby, Christchurch","latitude":-43.53333,"longitude":172.63333,"region":"Christchurch"},{"chain":"Countdown","id":75,"name":"New Brighton","address":"12 Hawke Street, New Brighton, Christchurch","latitude":-43.5067892,"longitude":172.729887,"region":"Christchurch"},{"chain":"Countdown","id":165,"name":"Northlands","address":"cnr Main North & Sawyers Arms Roads, Northlands, Christchurch","latitude":-43.53333,"longitude":172.63333,"region":"Christchurch"},{"chain":"Countdown","id":81,"name":"Northwood","address":"1 Radcliffe Road, Northwood, Christchurch","latitude":-43.4607227,"longitude":172.6256886,"region":"Christchurch"},{"chain":"Countdown","id":179,"name":"Rangiora East","address":"40-54 Ivory Street, Rangiora, Christchurch","latitude":-43.53333,"longitude":172.63333,"region":"Christchurch"},{"chain":"Countdown","id":103,"name":"Rolleston","address":"Cnr McCauley Street & Rolleston Drive, Rolleston, Christchurch","latitude":-43.53333,"longitude":172.63333,"region":"Christchurch"},{"chain":"Countdown","id":124,"name":"The Palms","address":"Marshlands Rd, The Palms, Christchurch","latitude":-43.53333,"longitude":172.63333,"region":"Christchurch"},{"chain":"FreshChoice","id":340,"name":"Barrington","address":"256 Barrington Street, Christchurch 8024","latitude":-43.5562222,"longitude":172.6205605,"region":"Christchurch","latestSnapshot":{"date":"2021-09-24T19:06:05.046+12:00","slots":{"2021-09-25":14,"2021-09-26":14,"2021-09-27":14,"2021-09-28":14,"2021-09-29":14,"2021-09-30":14,"2021-10-01":14,"2021-10-02":14,"2021-10-03":14}}},{"chain":"FreshChoice","id":341,"name":"City Market, Christchurch","address":"71 Lichfield Street, Christchurch Central, Christchurch Canterbury 8011","latitude":-43.5339096,"longitude":172.6375618,"region":"Christchurch","latestSnapshot":{"date":"2021-09-24T19:06:06.886+12:00","slots":{"2021-09-25":12,"2021-09-26":12,"2021-09-27":12,"2021-09-28":12,"2021-09-29":12,"2021-09-30":12}}},{"chain":"FreshChoice","id":343,"name":"Edgeware","address":"61 Edgeware Road, Edgeware, Christchurch 8014","latitude":-43.5130784,"longitude":172.6368112,"region":"Christchurch","latestSnapshot":{"date":"2021-09-24T19:06:10.580+12:00","slots":{"2021-09-25":0,"2021-09-26":0,"2021-09-27":11,"2021-09-28":13,"2021-09-29":13,"2021-09-30":13}}},{"chain":"FreshChoice","id":347,"name":"Merivale","address":"189 Papanui Road, Merivale, Merivale 8014","latitude":-43.5166639,"longitude":172.6250502,"region":"Christchurch","latestSnapshot":{"date":"2021-09-24T19:06:17.481+12:00","slots":{"2021-09-25":0,"2021-09-26":1,"2021-09-27":13,"2021-09-28":13,"2021-09-29":13,"2021-09-30":13}}},{"chain":"FreshChoice","id":349,"name":"Parklands","address":"60 Queenspark Drive, Parklands, Christchurch 8083","latitude":-43.4816393,"longitude":172.7060013,"region":"Christchurch","latestSnapshot":{"date":"2021-09-24T19:06:21.322+12:00","slots":{"2021-09-25":12,"2021-09-26":12,"2021-09-27":12,"2021-09-28":12,"2021-09-29":12,"2021-09-30":12}}},{"chain":"New World","id":2391539,"name":"Durham Street","address":"175 Durham Street - South, Christchurch Central, Christchurch, 8011","latitude":-43.5387356,"longitude":172.6331705,"region":"Christchurch","latestSnapshot":{"date":"2021-09-24T19:07:01.987+12:00","slots":{"2021-09-24":0,"2021-09-25":0,"2021-09-26":0,"2021-09-27":48,"2021-09-28":48,"2021-09-29":47,"2021-09-30":48,"2021-10-01":48}}},{"chain":"New World","id":2391510,"name":"Ferry Road","address":"7-11 St Johns Street, Woolston, Christchurch, 8062","latitude":-43.5494892,"longitude":172.6843279,"region":"Christchurch","latestSnapshot":{"date":"2021-09-24T19:07:04.611+12:00","slots":{"2021-09-24":0,"2021-09-25":35,"2021-09-26":36,"2021-09-27":36,"2021-09-28":36,"2021-09-29":36,"2021-09-30":36,"2021-10-01":36}}},{"chain":"New World","id":1272150,"name":"St Martins","address":"92 Wilsons Road, Saint Martins, Christchurch, 8022","latitude":-43.5581624,"longitude":172.6545312,"region":"Christchurch","latestSnapshot":{"date":"2021-09-24T19:06:35.632+12:00","slots":{"2021-09-24":0,"2021-09-25":33,"2021-09-26":45,"2021-09-27":46,"2021-09-28":46,"2021-09-29":46,"2021-09-30":46,"2021-10-01":46}}},{"chain":"New World","id":1272186,"name":"Stanmore","address":"288 Stanmore Road, Richmond, Christchurch, 8013","latitude":-43.5206429,"longitude":172.6566054,"region":"Christchurch","latestSnapshot":{"date":"2021-09-24T19:06:10.721+12:00","slots":{"2021-09-24":0,"2021-09-25":23,"2021-09-26":23,"2021-09-27":23,"2021-09-28":24,"2021-09-29":24,"2021-09-30":24,"2021-10-01":24}}},{"chain":"SuperValue","id":468837,"name":"Lyttelton","address":"17 London Street, Lyttleton, Christchurch 8082","latitude":-43.6024,"longitude":172.7241,"region":"Christchurch","latestSnapshot":{"date":"2021-09-24T19:06:02.936+12:00","slots":{"2021-09-27":8,"2021-09-28":8,"2021-09-29":8,"2021-09-30":8,"2021-10-01":8}}},{"chain":"SuperValue","id":468846,"name":"Sumner","address":"43 Nayland Street, Sumner, Christchurch 8081","latitude":-43.5697483,"longitude":172.7598734,"region":"Christchurch","latestSnapshot":{"date":"2021-09-24T19:06:18.361+12:00","slots":{"2021-09-25":5,"2021-09-26":5,"2021-09-27":6,"2021-09-28":6,"2021-09-29":6,"2021-09-30":6,"2021-10-01":6,"2021-10-02":6,"2021-10-03":6}}},{"chain":"Countdown","id":20,"name":"Church Corner","address":"Cnr Riccarton Rd & Hansons Lane, Christchurch, Church Cnr","latitude":null,"longitude":null,"region":"Church Cnr"},{"chain":"Countdown","id":23,"name":"Colombo St","address":"219 Colombo St, Christchurch, Colombo St","latitude":-43.5319621,"longitude":172.6366324,"region":"Colombo St"},{"chain":"FreshChoice","id":342,"name":"Cromwell","address":"1-3 Iles Street, Cromwell 9310","latitude":-45.0354902,"longitude":169.1939688,"region":"Cromwell","latestSnapshot":{"date":"2021-09-24T19:06:08.802+12:00","slots":{"2021-09-25":12,"2021-09-26":12,"2021-09-27":12,"2021-09-28":12,"2021-09-29":12,"2021-09-30":12,"2021-10-01":12,"2021-10-02":12,"2021-10-03":12}}},{"chain":"New World","id":237,"name":"Dannevirke","address":"Denmark Street, Dannevirke, 4930","latitude":-40.210911,"longitude":176.096788,"region":"Dannevirke","latestSnapshot":{"date":"2021-09-24T19:06:14.290+12:00","slots":{"2021-09-24":0,"2021-09-25":7,"2021-09-26":9,"2021-09-27":24,"2021-09-28":23,"2021-09-29":22,"2021-09-30":23,"2021-10-01":24}}},{"chain":"Countdown","id":24,"name":"Dargaville","address":"Dargaville Plaza, Victoria Street, Dargaville","latitude":-35.9371725,"longitude":173.8775322,"region":"Dargaville"},{"chain":"Countdown","id":25,"name":"Dinsdale","address":"47 Whatawhata Rd, Hamilton, Dinsdale","latitude":-37.7954095,"longitude":175.245211,"region":"Dinsdale"},{"chain":"Countdown","id":181,"name":"Andersons Bay 2","address":"560 Andersons Bay Rd, Countdown Andersons Bay, Dunedin","latitude":-45.87416,"longitude":170.50361,"region":"Dunedin"},{"chain":"Countdown","id":26,"name":"Dunedin Central","address":"309 Cumberland Street, Dunedn Cntrl Pickup, Dunedin Cnt, Dunedin","latitude":-45.87416,"longitude":170.50361,"region":"Dunedin"},{"chain":"Countdown","id":182,"name":"Dunedin South","address":"323 Andersons Bay Rd, Dunedin South, Andersons Bay, Dunedin","latitude":-45.87416,"longitude":170.50361,"region":"Dunedin"},{"chain":"FreshChoice","id":345,"name":"Green Island","address":"230 Main South Road, Dunedin 9018","latitude":-45.9026354,"longitude":170.4275023,"region":"Dunedin","latestSnapshot":{"date":"2021-09-24T19:06:14.235+12:00","slots":{"2021-09-25":12,"2021-09-26":12,"2021-09-27":12,"2021-09-28":13,"2021-09-29":13,"2021-09-30":13}}},{"chain":"FreshChoice","id":354,"name":"Roslyn","address":"279 Highgate, Roslyn, Dunedin 9010","latitude":-45.8675663,"longitude":170.4891868,"region":"Dunedin","latestSnapshot":{"date":"2021-09-24T19:06:30.729+12:00","slots":{"2021-09-25":12,"2021-09-26":12,"2021-09-27":12,"2021-09-28":12,"2021-09-29":12,"2021-09-30":12}}},{"chain":"Countdown","id":2391633,"name":"Dunedin South 2","address":"323 Andersons Bay Road, South Dunedin, Dunedin S","latitude":-45.8921702,"longitude":170.5031765,"region":"Dunedin S"},{"chain":"Countdown","id":2391634,"name":"Eastgate 2","address":"6 Buckleys Road, Linwood, Christchurch, Eastgate","latitude":-43.5327891,"longitude":172.6749335,"region":"Eastgate"},{"chain":"SuperValue","id":468848,"name":"Edgecumbe","address":"Unit 6, Riverslea Mall, 26 College Road, Edgecumbe 3120","latitude":-37.9555,"longitude":176.9225,"region":"Edgecumbe","latestSnapshot":{"date":"2021-09-24T19:05:46.447+12:00","slots":{"2021-09-25":9,"2021-09-26":9,"2021-09-27":9,"2021-09-28":9,"2021-09-29":9,"2021-09-30":9}}},{"chain":"New World","id":231,"name":"Foxton","address":"Cnr Main and Whyte Streets, FOXTON, 4814","latitude":-40.472517,"longitude":175.281707,"region":"FOXTON","latestSnapshot":{"date":"2021-09-24T19:07:34.821+12:00","slots":{"2021-09-24":0,"2021-09-25":5,"2021-09-26":8,"2021-09-27":12,"2021-09-28":6,"2021-09-29":12,"2021-09-30":12,"2021-10-01":12}}},{"chain":"SuperValue","id":468849,"name":"Featherston","address":"42 Fitzherbert Street, Rimutaka Hill, Featherston 5710","latitude":-41.1169,"longitude":175.2937,"region":"Featherston","latestSnapshot":{"date":"2021-09-24T19:05:47.866+12:00","slots":{"2021-09-27":1,"2021-09-29":1,"2021-10-01":1}}},{"chain":"Countdown","id":28,"name":"Feilding","address":"Cnr Kimbolton and Weld Streets, Feilding","latitude":null,"longitude":null,"region":"Feilding"},{"chain":"New World","id":276,"name":"Feilding","address":"42 Aorangi Street, Feilding, 4702","latitude":-40.228015,"longitude":175.569532,"region":"Feilding","latestSnapshot":{"date":"2021-09-24T19:07:45.674+12:00","slots":{"2021-09-24":0,"2021-09-25":0,"2021-09-26":0,"2021-09-27":0,"2021-09-28":5,"2021-09-29":6,"2021-09-30":8,"2021-10-01":11}}},{"chain":"SuperValue","id":468836,"name":"Fendalton","address":"376 Ilam Road, Bryndwr, Fendalton 8053","latitude":-43.5091323,"longitude":172.5902159,"region":"Fendalton","latestSnapshot":{"date":"2021-09-24T19:06:01.404+12:00","slots":{"2021-09-25":5,"2021-09-26":5,"2021-09-27":5,"2021-09-28":5,"2021-09-29":5,"2021-09-30":5,"2021-10-01":5,"2021-10-02":5,"2021-10-03":5}}},{"chain":"Countdown","id":29,"name":"Ferrymead","address":"999 Ferry Road, Christchurch, Ferrymead","latitude":-43.5571935,"longitude":172.7016041,"region":"Ferrymead"},{"chain":"FreshChoice","id":344,"name":"Geraldine","address":"7 Peel Street, Geraldine 7930","latitude":-44.091151,"longitude":171.2421577,"region":"Geraldine","latestSnapshot":{"date":"2021-09-24T19:06:12.421+12:00","slots":{"2021-09-25":5,"2021-09-26":8,"2021-09-27":5,"2021-09-28":12,"2021-09-29":12,"2021-09-30":9}}},{"chain":"Countdown","id":31,"name":"Gisborne","address":"Carnarvon Street, Gladstone Road, Gisborne","latitude":-38.65333,"longitude":178.00417,"region":"Gisborne"},{"chain":"Countdown","id":183,"name":"Gore","address":"24 Medway Street, Gore","latitude":-46.0986874,"longitude":168.9446017,"region":"Gore"},{"chain":"Countdown","id":2391641,"name":"Gore 2","address":"24 Medway Street, East Gore, Gore","latitude":-46.0986874,"longitude":168.9446017,"region":"Gore"},{"chain":"Countdown","id":177,"name":"Greymouth","address":"174 Mawhera Quay, Greymouth","latitude":-42.4480429,"longitude":171.2160637,"region":"Greymouth"},{"chain":"FreshChoice","id":359,"name":"Greytown","address":"12 Hastwell Street, Greytown 5712","latitude":-41.0809139,"longitude":175.4588794,"region":"Greytown","latestSnapshot":{"date":"2021-09-24T19:05:45.751+12:00","slots":{"2021-09-25":5,"2021-09-26":0,"2021-09-27":8,"2021-09-28":8,"2021-09-29":8,"2021-09-30":8,"2021-10-01":8,"2021-10-02":8,"2021-10-03":8}}},{"chain":"Countdown","id":13,"name":"Bridge St","address":"Cnr Bridge St and Anglesea St, Bridge St, Hamilton","latitude":null,"longitude":null,"region":"Hamilton"},{"chain":"Countdown","id":160,"name":"Chartwell","address":"Chartwell Mall, CW, Hamilton","latitude":null,"longitude":null,"region":"Hamilton"},{"chain":"Countdown","id":22,"name":"Claudelands","address":"160 Peach Grove Road, Hamilton East, Claudelands, Hamilton","latitude":null,"longitude":null,"region":"Hamilton"},{"chain":"Countdown","id":34,"name":"Hamilton","address":"Cnr Anglesea & Liverpool Streets, Hamilton","latitude":null,"longitude":null,"region":"Hamilton"},{"chain":"Countdown","id":73,"name":"Nawton","address":"Cnr Grandview Road & Hyde Avenue, Nawton, Hamilton","latitude":-37.7812152,"longitude":175.2373581,"region":"Hamilton"},{"chain":"Countdown","id":111,"name":"St James","address":"Cnr Hukunui & Thomas Rds, Rototuna, St James, Hamilton","latitude":null,"longitude":null,"region":"Hamilton"},{"chain":"Countdown","id":123,"name":"Te Rapa","address":"8 Eagle Way, Te Rapa, Hamilton","latitude":null,"longitude":null,"region":"Hamilton"},{"chain":"New World","id":301,"name":"Glenview","address":"Ohaupo Road, Glenview, Hamilton, 3206","latitude":-37.822527,"longitude":175.287416,"region":"Hamilton","latestSnapshot":{"date":"2021-09-24T19:07:34.151+12:00","slots":{"2021-09-24":0,"2021-09-25":20,"2021-09-26":22,"2021-09-27":24,"2021-09-28":24,"2021-09-29":24,"2021-09-30":24,"2021-10-01":24}}},{"chain":"New World","id":329,"name":"Hillcrest","address":"280 Cambridge Road, Hillcrest, Hamilton, 3216","latitude":-37.801952,"longitude":175.322549,"region":"Hamilton","latestSnapshot":{"date":"2021-09-24T19:06:24.031+12:00","slots":{"2021-09-24":0,"2021-09-25":37,"2021-09-26":48,"2021-09-27":86,"2021-09-28":85,"2021-09-29":87,"2021-09-30":87,"2021-10-01":88}}},{"chain":"New World","id":298,"name":"Rototuna","address":"Cnr Thomas & Horsham Downs Rds, Hamilton, 3210","latitude":-37.728271,"longitude":175.273985,"region":"Hamilton","latestSnapshot":{"date":"2021-09-24T19:07:20.762+12:00","slots":{"2021-09-24":0,"2021-09-25":0,"2021-09-26":0,"2021-09-27":39,"2021-09-28":53,"2021-09-29":54,"2021-09-30":51,"2021-10-01":50}}},{"chain":"New World","id":232,"name":"Te Rapa","address":"751 Te Rapa Road, Te Rapa, Hamilton, 3200","latitude":-37.753024,"longitude":175.239998,"region":"Hamilton","latestSnapshot":{"date":"2021-09-24T19:05:50.874+12:00","slots":{"2021-09-24":0,"2021-09-25":0,"2021-09-26":0,"2021-09-27":53,"2021-09-28":54,"2021-09-29":58,"2021-09-30":59,"2021-10-01":60}}},{"chain":"PAK'nSAVE","id":224,"name":"Clarence St","address":"85 Clarence Street, Hamilton Lake, Hamilton, 3204","latitude":-37.795653,"longitude":175.282839,"region":"Hamilton","latestSnapshot":{"date":"2021-09-24T19:06:10.563+12:00","slots":{"2021-09-24":0,"2021-09-25":32,"2021-09-26":55,"2021-09-27":75,"2021-09-28":83,"2021-09-29":84,"2021-09-30":83,"2021-10-01":85}}},{"chain":"PAK'nSAVE","id":225,"name":"Mill Street","address":"17 Mill Street, Whitiora, Hamilton, 3200","latitude":-37.7799,"longitude":175.27281,"region":"Hamilton","latestSnapshot":{"date":"2021-09-24T19:06:31.516+12:00","slots":{"2021-09-24":0,"2021-09-25":0,"2021-09-26":35,"2021-09-27":163,"2021-09-28":161,"2021-09-29":159,"2021-09-30":166,"2021-10-01":170}}},{"chain":"SuperValue","id":468829,"name":"Parkwood","address":"4 Gordonton Road, Hamilton 3210","latitude":-37.7330159,"longitude":175.2873278,"region":"Hamilton","latestSnapshot":{"date":"2021-09-24T03:55:24.089+12:00","slots":{"2021-09-24":1}}},{"chain":"Countdown","id":187,"name":"Hastings","address":"Cnr Queen Street West & King Street, Hastings","latitude":-39.6381,"longitude":176.84918,"region":"Hastings"},{"chain":"New World","id":245,"name":"Hastings","address":"400 Heretaunga Street East, Hastings, 4122","latitude":-39.644715,"longitude":176.847154,"region":"Hastings","latestSnapshot":{"date":"2021-09-24T19:05:46.786+12:00","slots":{"2021-09-24":0,"2021-09-25":20,"2021-09-26":30,"2021-09-27":38,"2021-09-28":37,"2021-09-29":37,"2021-09-30":39,"2021-10-01":39}}},{"chain":"PAK'nSAVE","id":200,"name":"Hastings","address":"Heretaunga Street West, West End Shopping Centre, Hastings, 4120","latitude":-39.636804,"longitude":176.836635,"region":"Hastings","latestSnapshot":{"date":"2021-09-24T19:06:27.162+12:00","slots":{"2021-09-24":0,"2021-09-25":0,"2021-09-26":6,"2021-09-27":17,"2021-09-28":42,"2021-09-29":36,"2021-09-30":45,"2021-10-01":47}}},{"chain":"New World","id":291,"name":"Havelock North","address":"Porter Drive, Havelock North, 4130","latitude":-39.671351,"longitude":176.877001,"region":"Havelock North","latestSnapshot":{"date":"2021-09-24T19:06:58.811+12:00","slots":{"2021-09-24":0,"2021-09-25":37,"2021-09-26":44,"2021-09-27":36,"2021-09-28":37,"2021-09-29":38,"2021-09-30":38,"2021-10-01":46}}},{"chain":"Countdown","id":36,"name":"Hawera","address":"Cnr Union & Nelson Streets, Hawera","latitude":-39.59167,"longitude":174.28333,"region":"Hawera"},{"chain":"PAK'nSAVE","id":194,"name":"Hawera","address":"54 Princes Street, Hawera, 4610","latitude":-39.590947,"longitude":174.283801,"region":"Hawera","latestSnapshot":{"date":"2021-09-24T19:05:46.829+12:00","slots":{"2021-09-24":0,"2021-09-25":0,"2021-09-26":54,"2021-09-27":56,"2021-09-28":56,"2021-09-29":56,"2021-09-30":55,"2021-10-01":56}}},{"chain":"Countdown","id":43,"name":"Huntly","address":"16/18 Tumate Mahuta Dr, Huntly","latitude":-37.5615866,"longitude":175.1581594,"region":"Huntly"},{"chain":"New World","id":257,"name":"Inglewood","address":"46 Matai Street, Inglewood, 4330","latitude":-39.158214,"longitude":174.20708,"region":"Inglewood","latestSnapshot":{"date":"2021-09-24T19:07:44.102+12:00","slots":{"2021-09-24":0,"2021-09-25":8,"2021-09-26":10,"2021-09-27":12,"2021-09-28":12,"2021-09-29":12,"2021-09-30":12,"2021-10-01":12}}},{"chain":"Countdown","id":44,"name":"Invercargill","address":"172 Tay Street, Invercargill","latitude":-46.4127714,"longitude":168.3577797,"region":"Invercargill"},{"chain":"Countdown","id":134,"name":"Waikiwi","address":"Cnr North Road & Durham Street, Waikiwi, Invercargill","latitude":-46.4,"longitude":168.35,"region":"Invercargill"},{"chain":"SuperValue","id":468841,"name":"Plaza","address":"103 Yarrow Street, Invercargill 9810","latitude":-46.4087434,"longitude":168.3548055,"region":"Invercargill","latestSnapshot":{"date":"2021-09-24T19:06:10.837+12:00","slots":{"2021-09-27":3,"2021-09-28":3,"2021-09-30":3,"2021-10-01":3}}},{"chain":"Countdown","id":46,"name":"Kaiapoi","address":"87-97 Hilton Street, Kaiapoi","latitude":-43.383074,"longitude":172.6553105,"region":"Kaiapoi"},{"chain":"New World","id":325,"name":"Kaiapoi","address":"52 Charles Street, Kaiapoi, 7630","latitude":-43.3824,"longitude":172.6596,"region":"Kaiapoi","latestSnapshot":{"date":"2021-09-24T19:07:07.480+12:00","slots":{"2021-09-24":0,"2021-09-25":45,"2021-09-26":42,"2021-09-27":50,"2021-09-28":50,"2021-09-29":50,"2021-09-30":50,"2021-10-01":50}}},{"chain":"Countdown","id":47,"name":"Kaikohe","address":"Station Rd, Kaikohe","latitude":-35.4120728,"longitude":173.7997591,"region":"Kaikohe"},{"chain":"New World","id":328,"name":"Kaikohe","address":"Marino Place, Kaikohe, 0405","latitude":-35.408951,"longitude":173.801012,"region":"Kaikohe","latestSnapshot":{"date":"2021-09-24T19:05:48.254+12:00","slots":{"2021-09-24":0,"2021-09-25":6,"2021-09-26":0,"2021-09-27":54,"2021-09-28":61,"2021-09-29":55,"2021-09-30":56,"2021-10-01":50}}},{"chain":"PAK'nSAVE","id":220,"name":"Kaitaia","address":"111 North Road, Kaitaia, 0482","latitude":-35.09945,"longitude":173.258322,"region":"Kaitaia","latestSnapshot":{"date":"2021-09-24T19:06:14.904+12:00","slots":{"2021-09-24":0,"2021-09-25":0,"2021-09-26":12,"2021-09-27":31,"2021-09-28":24,"2021-09-29":33,"2021-09-30":31,"2021-10-01":42}}},{"chain":"Countdown","id":50,"name":"Katikati","address":"123-131 Main Road, Katikati","latitude":-37.5559988,"longitude":175.9169238,"region":"Katikati"},{"chain":"New World","id":289,"name":"Kawerau","address":"Tarawera Court, Kawerau, 3127","latitude":-38.085853,"longitude":176.700944,"region":"Kawerau","latestSnapshot":{"date":"2021-09-24T19:06:37.274+12:00","slots":{"2021-09-24":0,"2021-09-25":11,"2021-09-26":3,"2021-09-27":5,"2021-09-28":14,"2021-09-29":13,"2021-09-30":14,"2021-10-01":11}}},{"chain":"Countdown","id":52,"name":"Kerikeri","address":"Cnr Butler & Kerikeri Rds, Kerikeri","latitude":-35.22676,"longitude":173.94739,"region":"Kerikeri"},{"chain":"New World","id":248,"name":"Kerikeri","address":"99 Kerikeri Road, Kerikeri, 0230","latitude":-35.2267,"longitude":173.951368,"region":"Kerikeri","latestSnapshot":{"date":"2021-09-24T19:06:29.180+12:00","slots":{"2021-09-24":0,"2021-09-25":13,"2021-09-26":42,"2021-09-27":46,"2021-09-28":43,"2021-09-29":34,"2021-09-30":36,"2021-10-01":48}}},{"chain":"Countdown","id":2391662,"name":"Kilbirnie","address":"47 Bay Road, Kilbirnie","latitude":-41.3194927,"longitude":174.7946949,"region":"Kilbirnie"},{"chain":"FreshChoice","id":346,"name":"Leeston","address":"78 High Street, Leeston 7632","latitude":-43.7627129,"longitude":172.2984205,"region":"Leeston","latestSnapshot":{"date":"2021-09-24T19:06:15.571+12:00","slots":{"2021-09-28":1,"2021-09-30":1,"2021-10-01":1}}},{"chain":"Countdown","id":53,"name":"Levin","address":"Cnr Bristol &, Stanley Street, Levin","latitude":-40.63333,"longitude":175.275,"region":"Levin"},{"chain":"New World","id":273,"name":"Levin","address":"21 Bath Street, Levin, 5510","latitude":-40.623065,"longitude":175.282791,"region":"Levin","latestSnapshot":{"date":"2021-09-24T19:05:55.112+12:00","slots":{"2021-09-24":0,"2021-09-25":9,"2021-09-26":11,"2021-09-27":31,"2021-09-28":30,"2021-09-29":34,"2021-09-30":35,"2021-10-01":34}}},{"chain":"Countdown","id":54,"name":"Lower Hutt","address":"261 High Street, Hutt Central, Lower Hutt","latitude":-41.21667,"longitude":174.91667,"region":"Lower Hutt"},{"chain":"Countdown","id":100,"name":"Queensgate","address":"35 Bloomfield Terrace, Queensgate, Lower Hutt","latitude":-41.21667,"longitude":174.91667,"region":"Lower Hutt"},{"chain":"New World","id":296,"name":"Hutt City","address":"Bloomfield Terrace, Lower Hutt, 5010","latitude":-41.209025,"longitude":174.90804,"region":"Lower Hutt","latestSnapshot":{"date":"2021-09-24T19:06:39.626+12:00","slots":{"2021-09-24":0,"2021-09-25":3,"2021-09-26":16,"2021-09-27":22,"2021-09-28":24,"2021-09-29":24,"2021-09-30":24,"2021-10-01":24}}},{"chain":"New World","id":246,"name":"Stokes Valley","address":"14 Oates Street, Stokes Valley, Lower Hutt, 5019","latitude":-41.174103,"longitude":174.980844,"region":"Lower Hutt","latestSnapshot":{"date":"2021-09-24T19:06:31.234+12:00","slots":{"2021-09-24":0,"2021-09-25":20,"2021-09-26":20,"2021-09-27":34,"2021-09-28":35,"2021-09-29":35,"2021-09-30":35,"2021-10-01":35}}},{"chain":"PAK'nSAVE","id":205,"name":"Lower Hutt","address":"Brunswick Street, Hutt Central, Lower Hutt, 5010","latitude":-41.205578,"longitude":174.913149,"region":"Lower Hutt","latestSnapshot":{"date":"2021-09-24T19:06:32.655+12:00","slots":{"2021-09-24":0,"2021-09-25":0,"2021-09-26":24,"2021-09-27":35,"2021-09-28":38,"2021-09-29":36,"2021-09-30":34,"2021-10-01":37}}},{"chain":"SuperValue","id":468835,"name":"Woburn","address":"1/5 Cambridge Terrace, Waiwhetu, Lower Hutt 5010","latitude":-41.2224675,"longitude":174.9107521,"region":"Lower Hutt","latestSnapshot":{"date":"2021-09-24T19:05:59.963+12:00","slots":{"2021-09-25":0,"2021-09-26":0,"2021-09-27":5,"2021-09-28":5,"2021-09-29":5,"2021-09-30":5,"2021-10-01":5,"2021-10-02":5,"2021-10-03":5}}},{"chain":"Countdown","id":184,"name":"Mailer Street","address":"43 Mailer Street, Dunedin, Mailer St","latitude":-45.8810211,"longitude":170.47894,"region":"Mailer St"},{"chain":"Countdown","id":164,"name":"Makahu Hall","address":"835 Mangaehu Road, Makahu, Makahu Hall","latitude":null,"longitude":null,"region":"Makahu Hall"},{"chain":"Countdown","id":166,"name":"Marton","address":"280-284 Broadway, Marton","latitude":-40.0649115,"longitude":175.3792916,"region":"Marton"},{"chain":"New World","id":330,"name":"Marton","address":"427 Wellington Road, Marton, 4710","latitude":-40.07666,"longitude":175.379646,"region":"Marton","latestSnapshot":{"date":"2021-09-24T19:06:34.147+12:00","slots":{"2021-09-24":0,"2021-09-25":0,"2021-09-26":0,"2021-09-27":8,"2021-09-28":15,"2021-09-29":16,"2021-09-30":16,"2021-10-01":16}}},{"chain":"Countdown","id":154,"name":"Westgate","address":"Westgate Shopping Centre, Cnr Westgate & Fern Hill Drive Massey North, Westgate, Auckland, Massey North","latitude":null,"longitude":null,"region":"Massey North"},{"chain":"Countdown","id":62,"name":"Masterton","address":"Cnr Workshop & Queen Street, Masterton","latitude":-40.95972,"longitude":175.6575,"region":"Masterton"},{"chain":"New World","id":313,"name":"Masterton","address":"Cnr Bruce and Dixon Street, Masterton, 5810","latitude":-40.948688,"longitude":175.665517,"region":"Masterton","latestSnapshot":{"date":"2021-09-24T19:07:36.214+12:00","slots":{"2021-09-24":0,"2021-09-25":5,"2021-09-26":8,"2021-09-27":11,"2021-09-28":15,"2021-09-29":18,"2021-09-30":18,"2021-10-01":18}}},{"chain":"PAK'nSAVE","id":197,"name":"Masterton","address":"Queen Street, Kuripuni, Masterton, 5810","latitude":-40.957214,"longitude":175.649687,"region":"Masterton","latestSnapshot":{"date":"2021-09-24T19:06:19.247+12:00","slots":{"2021-09-24":0,"2021-09-25":0,"2021-09-26":13,"2021-09-27":15,"2021-09-28":19,"2021-09-29":19,"2021-09-30":19,"2021-10-01":19}}},{"chain":"Countdown","id":63,"name":"Matamata","address":"Cnr Arawa & Gouk Streets, Matamata","latitude":-37.8106,"longitude":175.76237,"region":"Matamata"},{"chain":"New World","id":275,"name":"Matamata","address":"45 Waharoa East Road, Matamata, 3400","latitude":-37.803437,"longitude":175.767623,"region":"Matamata","latestSnapshot":{"date":"2021-09-24T19:05:52.318+12:00","slots":{"2021-09-24":0,"2021-09-25":33,"2021-09-26":47,"2021-09-27":54,"2021-09-28":54,"2021-09-29":56,"2021-09-30":57,"2021-10-01":57}}},{"chain":"SuperValue","id":468838,"name":"Methven","address":"34 The Mall, Methven 7730","latitude":-43.6332501,"longitude":171.6462892,"region":"Methven","latestSnapshot":{"date":"2021-09-24T19:06:06.278+12:00","slots":{"2021-09-25":9,"2021-09-26":9,"2021-09-27":9,"2021-09-28":9,"2021-09-29":9,"2021-09-30":9,"2021-10-01":9,"2021-10-02":9,"2021-10-03":9}}},{"chain":"SuperValue","id":468839,"name":"Milton","address":"59 Union Street, Milton 9220","latitude":-46.1217597,"longitude":169.9584665,"region":"Milton","latestSnapshot":{"date":"2021-09-24T19:06:08.023+12:00","slots":{"2021-09-25":8,"2021-09-26":9,"2021-09-27":9,"2021-09-28":9,"2021-09-29":9,"2021-09-30":9,"2021-10-01":9,"2021-10-02":9,"2021-10-03":9}}},{"chain":"Countdown","id":67,"name":"Moorhouse Ave","address":"347 Moorhouse Ave, Christchurch, Moorhouse","latitude":-43.5389584,"longitude":172.6383241,"region":"Moorhouse"},{"chain":"Countdown","id":68,"name":"Morrinsville","address":"66 Studholme Street, Morrinsville Pick up, Morrinsville","latitude":null,"longitude":null,"region":"Morrinsville"},{"chain":"New World","id":312,"name":"Morrinsville","address":"89 Thames Street, Morrinsville, 3300","latitude":-37.659507,"longitude":175.522299,"region":"Morrinsville","latestSnapshot":{"date":"2021-09-24T19:06:25.440+12:00","slots":{"2021-09-24":0,"2021-09-25":2,"2021-09-26":9,"2021-09-27":24,"2021-09-28":29,"2021-09-29":27,"2021-09-30":28,"2021-10-01":30}}},{"chain":"Countdown","id":185,"name":"Mosgiel","address":"55 Gordon Road, Mosgiel","latitude":-45.8804468,"longitude":170.35166,"region":"Mosgiel"},{"chain":"Countdown","id":2391679,"name":"Mosgiel 2","address":"55 Gordon Road, Fairfield, Mosgiel","latitude":null,"longitude":null,"region":"Mosgiel"},{"chain":"Countdown","id":174,"name":"Motueka","address":"High Street, Motueka","latitude":-41.1006363,"longitude":173.0124565,"region":"Motueka"},{"chain":"Countdown","id":7,"name":"Bayfair","address":"1-19 Girven Road, Mt Manganui, Bayfair, Mount Maunganui","latitude":-37.64167,"longitude":176.18611,"region":"Mount Maunganui"},{"chain":"New World","id":295,"name":"Mount Maunganui","address":"Cnr Tweed St & Maunganui Rd, Mount Maunganui, 3116","latitude":-37.653862,"longitude":176.198938,"region":"Mount Maunganui","latestSnapshot":{"date":"2021-09-24T19:07:02.771+12:00","slots":{"2021-09-24":0,"2021-09-25":27,"2021-09-26":33,"2021-09-27":41,"2021-09-28":42,"2021-09-29":42,"2021-09-30":42,"2021-10-01":42}}},{"chain":"Countdown","id":18,"name":"Carlyle","address":"36 Carlyle Street, Napier South, Carlyle, Napier","latitude":-39.4914962,"longitude":176.9113592,"region":"Napier"},{"chain":"Countdown","id":72,"name":"Napier","address":"Cnr Munroe & Dickens Streets, Napier","latitude":-39.48333,"longitude":176.91667,"region":"Napier"},{"chain":"New World","id":294,"name":"Greenmeadows","address":"9 Gloucester Street, Greenmeadows, Napier, 4112","latitude":-39.525324,"longitude":176.862409,"region":"Napier","latestSnapshot":{"date":"2021-09-24T19:06:46.796+12:00","slots":{"2021-09-24":0,"2021-09-25":11,"2021-09-26":26,"2021-09-27":42,"2021-09-28":41,"2021-09-29":42,"2021-09-30":41,"2021-10-01":42}}},{"chain":"New World","id":290,"name":"Onekawa","address":"34 Maadi Road, Onekawa, Napier, 4110","latitude":-39.508662,"longitude":176.887458,"region":"Napier","latestSnapshot":{"date":"2021-09-24T19:07:53.281+12:00","slots":{"2021-09-24":0,"2021-09-25":23,"2021-09-26":16,"2021-09-27":31,"2021-09-28":32,"2021-09-29":32,"2021-09-30":32,"2021-10-01":32}}},{"chain":"PAK'nSAVE","id":207,"name":"Napier City","address":"25 Munroe Street, Napier South, Napier South NAPIER, 4110","latitude":-39.494788,"longitude":176.913562,"region":"Napier","latestSnapshot":{"date":"2021-09-24T19:06:34.153+12:00","slots":{"2021-09-24":0,"2021-09-25":0,"2021-09-26":39,"2021-09-27":76,"2021-09-28":74,"2021-09-29":74,"2021-09-30":76,"2021-10-01":78}}},{"chain":"PAK'nSAVE","id":193,"name":"Tamatea","address":"Leicester Avenue, Tamatea, Napier, 4112","latitude":-39.509905,"longitude":176.869414,"region":"Napier","latestSnapshot":{"date":"2021-09-24T19:06:04.760+12:00","slots":{"2021-09-24":0,"2021-09-25":0,"2021-09-26":91,"2021-09-27":116,"2021-09-28":115,"2021-09-29":114,"2021-09-30":120,"2021-10-01":123}}},{"chain":"Countdown","id":74,"name":"Nelson","address":"35 St Vincent Street, Nelson","latitude":-41.2729129,"longitude":173.2775678,"region":"Nelson"},{"chain":"Countdown","id":114,"name":"Stoke","address":"Cnr Putaitai Street, Stoke, Nelson","latitude":-41.3119994,"longitude":173.2339481,"region":"Nelson"},{"chain":"Countdown","id":176,"name":"Trafalgar Park","address":"Cnr Paruparu Rd & Halifax S, Trafalgar Park, Nelson","latitude":-41.27078,"longitude":173.28404,"region":"Nelson"},{"chain":"FreshChoice","id":348,"name":"Nelson City","address":"69 Collingwood Street, Nelson, Nelson City Tasman 7010","latitude":-41.18826,"longitude":173.05017,"region":"Nelson","latestSnapshot":{"date":"2021-09-24T19:06:19.368+12:00","slots":{"2021-09-25":12,"2021-09-26":5,"2021-09-27":12,"2021-09-28":12,"2021-09-29":12,"2021-09-30":12}}},{"chain":"Countdown","id":76,"name":"New Plymouth Central","address":"Cnr of Cameron & Leach Streets, New Plymouth","latitude":-39.06667,"longitude":174.08333,"region":"New Plymouth"},{"chain":"Countdown","id":109,"name":"Spotswood","address":"Cnr Manadon St & South Rd, Spotswood, New Plymouth","latitude":-39.06824,"longitude":174.0302,"region":"New Plymouth"},{"chain":"Countdown","id":125,"name":"The Valley","address":"1 Vickers Road, Waiwhakaiho, The Valley, New Plymouth","latitude":-39.0470523,"longitude":174.115732,"region":"New Plymouth"},{"chain":"New World","id":266,"name":"Merrilands","address":"200 Mangorei Road, Merrilands, New Plymouth, 4312","latitude":-39.06659,"longitude":174.102988,"region":"New Plymouth","latestSnapshot":{"date":"2021-09-24T19:06:40.954+12:00","slots":{"2021-09-24":0,"2021-09-25":12,"2021-09-26":13,"2021-09-27":17,"2021-09-28":18,"2021-09-29":18,"2021-09-30":18,"2021-10-01":18}}},{"chain":"New World","id":286,"name":"New Plymouth","address":"78 Courtenay Street, New Plymouth, 4310","latitude":-39.05782,"longitude":174.07774,"region":"New Plymouth","latestSnapshot":{"date":"2021-09-24T19:06:03.441+12:00","slots":{"2021-09-24":0,"2021-09-25":23,"2021-09-26":37,"2021-09-27":47,"2021-09-28":48,"2021-09-29":47,"2021-09-30":47,"2021-10-01":48}}},{"chain":"PAK'nSAVE","id":191,"name":"New Plymouth","address":"53 Leach Street, New Plymouth, 4310","latitude":-39.05712,"longitude":174.08127,"region":"New Plymouth","latestSnapshot":{"date":"2021-09-24T19:05:49.593+12:00","slots":{"2021-09-24":0,"2021-09-25":0,"2021-09-26":48,"2021-09-27":53,"2021-09-28":54,"2021-09-29":54,"2021-09-30":55,"2021-10-01":56}}},{"chain":"SuperValue","id":468827,"name":"Bell Block","address":"Parklands Shopping Centre, 188 Parklands Avenue, Bell Block, New Plymouth 4312","latitude":-39.03333,"longitude":174.15,"region":"New Plymouth","latestSnapshot":{"date":"2021-09-24T19:05:43.537+12:00","slots":{"2021-09-25":5,"2021-09-26":3,"2021-09-27":5,"2021-09-28":5,"2021-09-29":5,"2021-09-30":5,"2021-10-01":5,"2021-10-02":5,"2021-10-03":3}}},{"chain":"New World","id":256,"name":"Ngaruawahia","address":"7 Galileo Street, Ngaruawahia, 3720","latitude":-37.667256,"longitude":175.150107,"region":"Ngaruawahia","latestSnapshot":{"date":"2021-09-24T19:06:01.256+12:00","slots":{"2021-09-24":0,"2021-09-25":0,"2021-09-26":0,"2021-09-27":0,"2021-09-28":0,"2021-09-29":0,"2021-09-30":0,"2021-10-01":0}}},{"chain":"Countdown","id":82,"name":"Oamaru","address":"116/108 Thames St, Oamaru","latitude":-45.09746,"longitude":170.96911,"region":"Oamaru"},{"chain":"FreshChoice","id":333,"name":"Omokoroa","address":"160 Omokoroa Road, Omokoroa 3114","latitude":-37.6412707,"longitude":176.0383555,"region":"Omokoroa","latestSnapshot":{"date":"2021-09-24T19:05:52.414+12:00","slots":{"2021-09-25":13,"2021-09-26":13,"2021-09-27":13,"2021-09-28":13,"2021-09-29":13,"2021-09-30":13}}},{"chain":"New World","id":278,"name":"Opotiki","address":"19 Bridge Street, Opotiki, 3122","latitude":-38.011812,"longitude":177.275962,"region":"Opotiki","latestSnapshot":{"date":"2021-09-24T19:06:27.439+12:00","slots":{"2021-09-24":0,"2021-09-25":20,"2021-09-26":24,"2021-09-27":24,"2021-09-28":24,"2021-09-29":24,"2021-09-30":24,"2021-10-01":24}}},{"chain":"Countdown","id":84,"name":"Orewa","address":"Moenui Avenue, Orewa","latitude":-36.5891682,"longitude":174.69319,"region":"Orewa"},{"chain":"New World","id":271,"name":"Orewa","address":"11 Moana Avenue, Orewa, 0931","latitude":-36.586612,"longitude":174.69366,"region":"Orewa","latestSnapshot":{"date":"2021-09-24T19:05:57.855+12:00","slots":{"2021-09-24":0,"2021-09-25":14,"2021-09-26":36,"2021-09-27":40,"2021-09-28":36,"2021-09-29":39,"2021-09-30":45,"2021-10-01":45}}},{"chain":"Countdown","id":85,"name":"Otaki","address":"Cnr Mill Road & Aotaki Street, Otaki","latitude":-40.75833,"longitude":175.15,"region":"Otaki"},{"chain":"New World","id":262,"name":"Otaki","address":"155-163 Main Highway, Otaki, 5512","latitude":-40.763486,"longitude":175.153556,"region":"Otaki","latestSnapshot":{"date":"2021-09-24T19:06:50.541+12:00","slots":{"2021-09-24":0,"2021-09-25":6,"2021-09-26":7,"2021-09-27":10,"2021-09-28":9,"2021-09-29":10,"2021-09-30":10,"2021-10-01":9}}},{"chain":"SuperValue","id":468840,"name":"Otautau","address":"157 Main Street, Otautau 9610","latitude":-46.1434972,"longitude":167.9973843,"region":"Otautau","latestSnapshot":{"date":"2021-09-24T19:06:09.505+12:00","slots":{"2021-09-25":5,"2021-09-26":5,"2021-09-27":5,"2021-09-28":5,"2021-09-29":5,"2021-09-30":5,"2021-10-01":5,"2021-10-02":5,"2021-10-03":5}}},{"chain":"Countdown","id":86,"name":"Otorohanga","address":"119-123 Maniapoto Street, Otorohanga","latitude":-38.1888396,"longitude":175.2099724,"region":"Otorohanga"},{"chain":"Countdown","id":87,"name":"Paeroa","address":"Paeroa","latitude":-37.3804671,"longitude":175.6704263,"region":"Paeroa"},{"chain":"New World","id":283,"name":"Pahiatua","address":"101 Main Street, Pahiatua, 4910","latitude":-40.452412,"longitude":175.841836,"region":"Pahiatua","latestSnapshot":{"date":"2021-09-24T19:07:24.711+12:00","slots":{"2021-09-24":0,"2021-09-25":1,"2021-09-26":3,"2021-09-27":17,"2021-09-28":15,"2021-09-29":18,"2021-09-30":18,"2021-10-01":18}}},{"chain":"Countdown","id":147,"name":"Paihia Central","address":"6 Williams Road, Paihia, Paihia Central Click-Collect, Paihia Central","latitude":null,"longitude":null,"region":"Paihia Central"},{"chain":"Countdown","id":14,"name":"Broadway","address":"Main Street, Broadway, Palmerston North","latitude":-40.3483302,"longitude":175.6255986,"region":"Palmerston North"},{"chain":"Countdown","id":51,"name":"Kelvin Grove","address":"7 Fernlea Ave, Kelvin Grove, Palmerston North","latitude":-40.3300725,"longitude":175.6530145,"region":"Palmerston North"},{"chain":"Countdown","id":89,"name":"Palmerston North","address":"Cnr Ferguson & Ashley Street, Palmerston N, Palmerston North","latitude":-40.35636,"longitude":175.61113,"region":"Palmerston North"},{"chain":"Countdown","id":101,"name":"Rangitikei Street","address":"Cnr Rangitikei & Featherstone sts, Rangitikei, Palmerston North","latitude":-40.35636,"longitude":175.61113,"region":"Palmerston North"},{"chain":"New World","id":277,"name":"Broadway","address":"Broadway Avenue, Palmerston North, 4414","latitude":-40.348551,"longitude":175.623806,"region":"Palmerston North","latestSnapshot":{"date":"2021-09-24T19:06:07.895+12:00","slots":{"2021-09-24":0,"2021-09-25":0,"2021-09-26":0,"2021-09-27":13,"2021-09-28":19,"2021-09-29":21,"2021-09-30":20,"2021-10-01":20}}},{"chain":"New World","id":327,"name":"Pioneer","address":"179-197 Main Street, Palmerston North, 4412","latitude":-40.359638,"longitude":175.600741,"region":"Palmerston North","latestSnapshot":{"date":"2021-09-24T19:05:45.331+12:00","slots":{"2021-09-24":0,"2021-09-25":1,"2021-09-26":1,"2021-09-27":18,"2021-09-28":15,"2021-09-29":18,"2021-09-30":23,"2021-10-01":23}}},{"chain":"PAK'nSAVE","id":221,"name":"Palmerston N","address":"Fergusson Street, Palmerston North, 4472","latitude":-40.359198,"longitude":175.611537,"region":"Palmerston North","latestSnapshot":{"date":"2021-09-24T19:06:37.063+12:00","slots":{"2021-09-24":0,"2021-09-25":0,"2021-09-26":0,"2021-09-27":0,"2021-09-28":6,"2021-09-29":11,"2021-09-30":13,"2021-10-01":21}}},{"chain":"Countdown","id":90,"name":"Papakura","address":"2 Averill Street, Papakura","latitude":-37.063539,"longitude":174.9437388,"region":"Papakura"},{"chain":"Countdown","id":91,"name":"Papamoa","address":"Papamoa Shopping Centre, Domain Road, Royal Palm Beach, Papamoa","latitude":null,"longitude":null,"region":"Papamoa"},{"chain":"PAK'nSAVE","id":215,"name":"Papamoa","address":"42 Domain Road, Papamoa Beach, Papamoa, 3118","latitude":-37.70191,"longitude":176.283687,"region":"Papamoa","latestSnapshot":{"date":"2021-09-24T19:06:12.081+12:00","slots":{"2021-09-24":0,"2021-09-25":0,"2021-09-26":55,"2021-09-27":80,"2021-09-28":88,"2021-09-29":91,"2021-09-30":90,"2021-10-01":90}}},{"chain":"Countdown","id":149,"name":"Paparoa Hall","address":"2056 Paparoa Valley Road, Paparoa Hall","latitude":-36.1035886,"longitude":174.230383,"region":"Paparoa Hall"},{"chain":"Countdown","id":93,"name":"Paraparaumu","address":"Coastlands Shopping Centre, Paraparaumu","latitude":-40.9166638,"longitude":175.0072663,"region":"Paraparaumu"},{"chain":"New World","id":309,"name":"Kapiti","address":"159 Kapiti Road, Paraparaumu, 5032","latitude":-40.905625,"longitude":174.994131,"region":"Paraparaumu","latestSnapshot":{"date":"2021-09-24T19:05:43.089+12:00","slots":{"2021-09-24":0,"2021-09-25":15,"2021-09-26":27,"2021-09-27":31,"2021-09-28":30,"2021-09-29":32,"2021-09-30":31,"2021-10-01":32}}},{"chain":"PAK'nSAVE","id":211,"name":"Kapiti","address":"76 Rimu Road, Paraparaumu, 5032","latitude":-40.918086,"longitude":175.001761,"region":"Paraparaumu","latestSnapshot":{"date":"2021-09-24T19:05:57.642+12:00","slots":{"2021-09-24":0,"2021-09-25":0,"2021-09-26":45,"2021-09-27":65,"2021-09-28":58,"2021-09-29":61,"2021-09-30":64,"2021-10-01":62}}},{"chain":"SuperValue","id":468830,"name":"Pauanui","address":"Pauanui Shopping Centre, 1 Jubilee Drive, Pauanui 3579","latitude":-37.0865,"longitude":175.8125,"region":"Pauanui","latestSnapshot":{"date":"2021-09-24T19:05:52.405+12:00","slots":{"2021-09-25":2,"2021-09-26":2,"2021-09-27":2,"2021-09-28":2,"2021-09-29":2,"2021-09-30":2,"2021-10-01":2,"2021-10-02":2,"2021-10-03":2}}},{"chain":"FreshChoice","id":350,"name":"Picton","address":"100 High Street, Picton 7220","latitude":-41.2921972,"longitude":174.0073933,"region":"Picton","latestSnapshot":{"date":"2021-09-24T19:06:23.415+12:00","slots":{"2021-09-25":7,"2021-09-26":7,"2021-09-27":7,"2021-09-28":7,"2021-09-29":7,"2021-09-30":7,"2021-10-01":7,"2021-10-02":7,"2021-10-03":7}}},{"chain":"Countdown","id":95,"name":"Pokeno","address":"Pokeno","latitude":-37.2450029,"longitude":175.0217771,"region":"Pokeno"},{"chain":"New World","id":242,"name":"Paremata","address":"93-97 Mana Esplanade, Paremata, Porirua, 5026","latitude":-41.0944,"longitude":174.868615,"region":"Porirua","latestSnapshot":{"date":"2021-09-24T19:06:51.490+12:00","slots":{"2021-09-24":0,"2021-09-25":5,"2021-09-26":4,"2021-09-27":7,"2021-09-28":7,"2021-09-29":8,"2021-09-30":8,"2021-10-01":8}}},{"chain":"PAK'nSAVE","id":230,"name":"Porirua","address":"12 Parumoana Street, Porirua, 5022","latitude":-41.131559,"longitude":174.841818,"region":"Porirua","latestSnapshot":{"date":"2021-09-24T19:06:38.500+12:00","slots":{"2021-09-24":0,"2021-09-25":0,"2021-09-26":22,"2021-09-27":46,"2021-09-28":46,"2021-09-29":50,"2021-09-30":51,"2021-10-01":54}}},{"chain":"SuperValue","id":468850,"name":"Cannons Creek","address":"16 Warspite Avenue,, Cannons Creek, Porirua 5024","latitude":-41.1411424,"longitude":174.865456,"region":"Porirua","latestSnapshot":{"date":"2021-09-24T19:05:44.897+12:00","slots":{"2021-09-26":5,"2021-09-27":5,"2021-09-28":5,"2021-09-29":5,"2021-09-30":5,"2021-10-01":5,"2021-10-02":5,"2021-10-03":5}}},{"chain":"FreshChoice","id":351,"name":"Prebbleton","address":"9 Tosswill Road, Prebbleton Canterbury 7604","latitude":-43.5847255,"longitude":172.5174791,"region":"Prebbleton Canterbury","latestSnapshot":{"date":"2021-09-24T19:06:25.323+12:00","slots":{"2021-09-25":13,"2021-09-26":0,"2021-09-27":13,"2021-09-28":13,"2021-09-29":13,"2021-09-30":13}}},{"chain":"Countdown","id":97,"name":"Pukekohe","address":"Cnr Tobin & Seddon Lane, Pukekohe","latitude":null,"longitude":null,"region":"Pukekohe"},{"chain":"PAK'nSAVE","id":192,"name":"Pukekohe","address":"99 Queen Street, Pukekohe, 2120","latitude":-37.205157,"longitude":174.899612,"region":"Pukekohe","latestSnapshot":{"date":"2021-09-24T19:06:39.929+12:00","slots":{"2021-09-24":0,"2021-09-25":0,"2021-09-26":0,"2021-09-27":0,"2021-09-28":0,"2021-09-29":0,"2021-09-30":2,"2021-10-01":14}}},{"chain":"Countdown","id":98,"name":"Pukekohe South","address":"186 - 192 Manukau Rd, Pukekohe, Pukekohe Sth ClC, Pukekohe Sth","latitude":null,"longitude":null,"region":"Pukekohe Sth"},{"chain":"Countdown","id":99,"name":"Putaruru","address":"Tirau Street, Putaruru","latitude":-38.0499529,"longitude":175.780499,"region":"Putaruru"},{"chain":"Countdown","id":186,"name":"Queenstown","address":"5 mile retail centre, frankton, Queenstown","latitude":-45.03023,"longitude":168.66271,"region":"Queenstown"},{"chain":"Countdown","id":2391712,"name":"Queenstown 2","address":"30 Grant Road, Frankton, Queenstown","latitude":-45.0136555,"longitude":168.742117,"region":"Queenstown"},{"chain":"FreshChoice","id":352,"name":"Queenstown","address":"64 Gorge Road, Queenstown, Otago 9300","latitude":-44.9954453,"longitude":168.6753275,"region":"Queenstown","latestSnapshot":{"date":"2021-09-24T19:06:27.099+12:00","slots":{"2021-09-25":13,"2021-09-26":13,"2021-09-27":13,"2021-09-28":13,"2021-09-29":13,"2021-09-30":13}}},{"chain":"PAK'nSAVE","id":219,"name":"Rangiora","address":"2 Southbrook Road, Waimakariri, Rangiora, 7400","latitude":-43.3251999,"longitude":172.5992704,"region":"Rangiora","latestSnapshot":{"date":"2021-09-24T19:06:23.507+12:00","slots":{"2021-09-24":0,"2021-09-25":0,"2021-09-26":44,"2021-09-27":61,"2021-09-28":70,"2021-09-29":67,"2021-09-30":69,"2021-10-01":71}}},{"chain":"Countdown","id":2391713,"name":"Rangiora East 2","address":"40-54 Ivory Street, Rangiora, Rangiora East, Rangiora Est","latitude":null,"longitude":null,"region":"Rangiora Est"},{"chain":"Countdown","id":2391715,"name":"Redwoodtown 2","address":"Cnr Weld St and, Alabama Road, Redwoodtown","latitude":null,"longitude":null,"region":"Redwoodtown"},{"chain":"SuperValue","id":468842,"name":"Reefton","address":"65 Broadway, Reefton 7830","latitude":-42.1197589,"longitude":171.8647508,"region":"Reefton","latestSnapshot":{"date":"2021-09-24T19:06:12.546+12:00","slots":{"2021-09-25":7,"2021-09-26":7,"2021-09-27":7,"2021-09-28":7,"2021-09-29":7,"2021-09-30":7,"2021-10-01":7,"2021-10-02":7,"2021-10-03":7}}},{"chain":"SuperValue","id":468843,"name":"Renwick","address":"78 High Street, Renwick 7201","latitude":-41.5079954,"longitude":173.8256924,"region":"Renwick","latestSnapshot":{"date":"2021-09-24T19:06:13.982+12:00","slots":{"2021-09-27":10,"2021-09-28":10,"2021-09-29":10,"2021-09-30":10,"2021-10-01":10}}},{"chain":"Countdown","id":102,"name":"Richmond","address":"Cnr Champion Rd and Salisbury Rd, Richmond","latitude":null,"longitude":null,"region":"Richmond"},{"chain":"FreshChoice","id":353,"name":"Richmond","address":"Richmond Mall Complex, 216 Queen Street, Richmond 7020","latitude":-41.3437,"longitude":173.185,"region":"Richmond","latestSnapshot":{"date":"2021-09-24T19:06:28.887+12:00","slots":{"2021-09-25":8,"2021-09-26":9,"2021-09-27":8,"2021-09-28":8,"2021-09-29":9,"2021-09-30":9}}},{"chain":"Countdown","id":27,"name":"Fairy Springs","address":"54 Fairy Springs Road, FairySprings, Rotorua","latitude":-38.13874,"longitude":176.24516,"region":"Rotorua"},{"chain":"Countdown","id":105,"name":"Rotorua","address":"246 Fenton Street, Victoria, Rotorua","latitude":-38.1433592,"longitude":176.2535067,"region":"Rotorua"},{"chain":"Countdown","id":106,"name":"Rotorua Central Mall","address":"Rotorua Central Mall, Victoria Street, Central Mall, Rotorua","latitude":-38.13874,"longitude":176.24516,"region":"Rotorua"},{"chain":"FreshChoice","id":338,"name":"Te Ngae","address":"554 Te Ngae Road, Owhata, Rotorua 3010","latitude":-38.1315799,"longitude":176.2991437,"region":"Rotorua","latestSnapshot":{"date":"2021-09-24T19:06:01.061+12:00","slots":{"2021-09-25":13,"2021-09-26":13,"2021-09-27":13,"2021-09-28":13,"2021-09-29":13,"2021-09-30":13}}},{"chain":"New World","id":311,"name":"Westend","address":"247 Old Taupo Road, Rotorua, 3015","latitude":-38.146066,"longitude":176.237248,"region":"Rotorua","latestSnapshot":{"date":"2021-09-24T19:06:12.883+12:00","slots":{"2021-09-24":0,"2021-09-25":13,"2021-09-26":26,"2021-09-27":54,"2021-09-28":55,"2021-09-29":56,"2021-09-30":55,"2021-10-01":55}}},{"chain":"Countdown","id":107,"name":"Rototuna","address":"3 Fergy Place, Rototuna North, Rototuna","latitude":-37.7218855,"longitude":175.2589655,"region":"Rototuna"},{"chain":"SuperValue","id":468845,"name":"Roxburgh","address":"93 Scotland Street, Roxburgh 9500","latitude":-45.540031,"longitude":169.3139864,"region":"Roxburgh","latestSnapshot":{"date":"2021-09-24T19:06:16.670+12:00","slots":{"2021-09-25":5,"2021-09-26":5,"2021-09-27":6,"2021-09-28":6,"2021-09-29":6,"2021-09-30":6,"2021-10-01":6,"2021-10-02":5,"2021-10-03":5}}},{"chain":"Countdown","id":150,"name":"Ruawai outside The Well Cafe","address":"Freyberg Street, Ruawai outside The Well Cafe","latitude":null,"longitude":null,"region":"Ruawai outside The Well Cafe"},{"chain":"Countdown","id":108,"name":"Silverdale","address":"40 Hibiscus Coast Highway, Silverdale","latitude":-36.6151472,"longitude":174.6819358,"region":"Silverdale"},{"chain":"Countdown","id":115,"name":"Stratford","address":"21A - 27 Broadway, State Highway 3, Stratford","latitude":-39.3319552,"longitude":174.2813149,"region":"Stratford"},{"chain":"New World","id":287,"name":"Stratford","address":"124 Regan Street, Stratford, 4332","latitude":-39.337111,"longitude":174.286329,"region":"Stratford","latestSnapshot":{"date":"2021-09-24T19:06:49.759+12:00","slots":{"2021-09-24":0,"2021-09-25":14,"2021-09-26":19,"2021-09-27":21,"2021-09-28":22,"2021-09-29":22,"2021-09-30":22,"2021-10-01":22}}},{"chain":"New World","id":308,"name":"Taihape","address":"112 Hautapu Street, Taihape, 4720","latitude":-39.67708,"longitude":175.798534,"region":"Taihape","latestSnapshot":{"date":"2021-09-24T19:06:42.624+12:00","slots":{"2021-09-24":0,"2021-09-25":6,"2021-09-26":8,"2021-09-27":8,"2021-09-28":7,"2021-09-29":7,"2021-09-30":8,"2021-10-01":8}}},{"chain":"Countdown","id":144,"name":"Taihape Memorial Park","address":"12 Kokako Street, Taihape Park","latitude":-39.6775435,"longitude":175.8019518,"region":"Taihape Park"},{"chain":"FreshChoice","id":355,"name":"Takaka","address":"13 Willow Street,, Takaka 7110","latitude":-40.8610538,"longitude":172.8069659,"region":"Takaka","latestSnapshot":{"date":"2021-09-24T19:06:32.621+12:00","slots":{"2021-09-25":8,"2021-09-26":11,"2021-09-27":11,"2021-09-28":11,"2021-09-29":11,"2021-09-30":11}}},{"chain":"New World","id":306,"name":"Taumarunui","address":"10 Hakiaha Street, Taumarunui, 3920","latitude":-38.882994,"longitude":175.257912,"region":"Taumarunui","latestSnapshot":{"date":"2021-09-24T19:07:49.027+12:00","slots":{"2021-09-24":0,"2021-09-25":0,"2021-09-26":0,"2021-09-27":0,"2021-09-28":0,"2021-09-29":0,"2021-09-30":0,"2021-10-01":0}}},{"chain":"Countdown","id":161,"name":"Taupo","address":"Cnr Spa Road & Tongariro Street, Taupo","latitude":-38.68333,"longitude":176.08333,"region":"Taupo"},{"chain":"Countdown","id":2391732,"name":"Taupo 2","address":"Cnr Spa Road & Tongariro Street, Taupo","latitude":-38.68333,"longitude":176.08333,"region":"Taupo"},{"chain":"PAK'nSAVE","id":212,"name":"Taupo","address":"105-131 Ruapehu Street, Taupo, 3330","latitude":-38.685532,"longitude":176.073247,"region":"Taupo","latestSnapshot":{"date":"2021-09-24T19:06:30.022+12:00","slots":{"2021-09-24":0,"2021-09-25":0,"2021-09-26":20,"2021-09-27":31,"2021-09-28":34,"2021-09-29":37,"2021-09-30":36,"2021-10-01":48}}},{"chain":"Countdown","id":9,"name":"Bethlehem","address":"19 Bethlehem Road, Bethlehem, Tauranga","latitude":-37.6929921,"longitude":176.1098017,"region":"Tauranga"},{"chain":"Countdown","id":16,"name":"Bureta Park","address":"40-50 Bureta Road, Otumoetai, Bureta Park, Tauranga","latitude":-37.6684079,"longitude":176.1532548,"region":"Tauranga"},{"chain":"Countdown","id":30,"name":"Fraser Cove","address":"Fraser Cove Shopping Centre, 229-233 Fraser Street, Fraser Cove, Tauranga","latitude":-37.68611,"longitude":176.16667,"region":"Tauranga"},{"chain":"Countdown","id":163,"name":"Greerton","address":"1368 Cameron Road, Greerton, Tauranga","latitude":-37.7275545,"longitude":176.1323531,"region":"Tauranga"},{"chain":"Countdown","id":118,"name":"Tauranga","address":"618 Cameron Road, Tauranga","latitude":-37.7004145,"longitude":176.1577273,"region":"Tauranga"},{"chain":"New World","id":293,"name":"Brookfield","address":"Bellevue Road, Otumoetai, Tauranga, 3110","latitude":-37.688946,"longitude":176.1347,"region":"Tauranga","latestSnapshot":{"date":"2021-09-24T19:07:16.898+12:00","slots":{"2021-09-24":0,"2021-09-25":35,"2021-09-26":47,"2021-09-27":71,"2021-09-28":71,"2021-09-29":72,"2021-09-30":72,"2021-10-01":72}}},{"chain":"New World","id":319,"name":"Gate Pa","address":"948 Cameron Road, Gate Pa, Tauranga, 3112","latitude":-37.713787,"longitude":176.142697,"region":"Tauranga","latestSnapshot":{"date":"2021-09-24T19:07:16.291+12:00","slots":{"2021-09-24":0,"2021-09-25":41,"2021-09-26":46,"2021-09-27":48,"2021-09-28":47,"2021-09-29":46,"2021-09-30":48,"2021-10-01":48}}},{"chain":"PAK'nSAVE","id":198,"name":"Cameron Road","address":"476 Cameron Road, Tauranga, 3110","latitude":-37.696716,"longitude":176.161533,"region":"Tauranga","latestSnapshot":{"date":"2021-09-24T19:06:16.268+12:00","slots":{"2021-09-24":0,"2021-09-25":0,"2021-09-26":0,"2021-09-27":83,"2021-09-28":96,"2021-09-29":114,"2021-09-30":110,"2021-10-01":99}}},{"chain":"PAK'nSAVE","id":208,"name":"Tauriko","address":"2 Taurikura Drive, Tauriko, Tauranga, 3110","latitude":-37.738653,"longitude":176.103745,"region":"Tauranga","latestSnapshot":{"date":"2021-09-24T19:06:26.314+12:00","slots":{"2021-09-24":0,"2021-09-25":0,"2021-09-26":98,"2021-09-27":117,"2021-09-28":117,"2021-09-29":119,"2021-09-30":117,"2021-10-01":120}}},{"chain":"SuperValue","id":468831,"name":"Pyes Pa","address":"Unit 6, 83 Pyes Pa Road, Pyes Pa, Tauranga","latitude":-37.742991,"longitude":176.1237003,"region":"Tauranga","latestSnapshot":{"date":"2021-09-24T19:05:54.172+12:00","slots":{"2021-09-25":10,"2021-09-27":10,"2021-09-28":6,"2021-09-29":10,"2021-09-30":10,"2021-10-01":0,"2021-10-02":0}}},{"chain":"Countdown","id":145,"name":"Te Anau Key Play Centre","address":"2373 Te Anau, Mossburn Highway, Key Play Centre, Key Play Centre - Te Anau, Te Anau","latitude":null,"longitude":null,"region":"Te Anau"},{"chain":"Countdown","id":119,"name":"Te Aroha","address":"85 Whitaker Street, Te Aroha","latitude":-37.5430323,"longitude":175.7121101,"region":"Te Aroha"},{"chain":"Countdown","id":162,"name":"Te Awamutu","address":"180 Sloane Street, Te Awamutu","latitude":-38.0120534,"longitude":175.3270411,"region":"Te Awamutu"},{"chain":"Countdown","id":2391737,"name":"Te Awamutu 2","address":"180 Sloane Street, Te Awamutu","latitude":-38.0120534,"longitude":175.3270411,"region":"Te Awamutu"},{"chain":"PAK'nSAVE","id":222,"name":"Te Awamutu","address":"650-670 Cambridge Road, Te Awamutu, 3800","latitude":-38.008101,"longitude":175.340102,"region":"Te Awamutu","latestSnapshot":{"date":"2021-09-24T19:06:00.484+12:00","slots":{"2021-09-24":0,"2021-09-25":0,"2021-09-26":27,"2021-09-27":29,"2021-09-28":35,"2021-09-29":37,"2021-09-30":39,"2021-10-01":42}}},{"chain":"New World","id":235,"name":"Te Kuiti","address":"39-51 Rora Street, Te Kuiti, 3910","latitude":-38.331839,"longitude":175.16319,"region":"Te Kuiti","latestSnapshot":{"date":"2021-09-24T19:07:32.714+12:00","slots":{"2021-09-24":0,"2021-09-25":33,"2021-09-26":37,"2021-09-27":44,"2021-09-28":45,"2021-09-29":43,"2021-09-30":45,"2021-10-01":45}}},{"chain":"Countdown","id":122,"name":"Te Puke","address":"Queen St & Boucher Ave, Te Puke","latitude":-37.7864143,"longitude":176.324828,"region":"Te Puke"},{"chain":"New World","id":259,"name":"Te Puke","address":"12 Jocelyn Street, Te Puke, 3119","latitude":-37.783124,"longitude":176.328028,"region":"Te Puke","latestSnapshot":{"date":"2021-09-24T19:07:19.358+12:00","slots":{"2021-09-24":0,"2021-09-25":48,"2021-09-26":55,"2021-09-27":58,"2021-09-28":60,"2021-09-29":59,"2021-09-30":59,"2021-10-01":60}}},{"chain":"PAK'nSAVE","id":217,"name":"Thames","address":"100 Mary Street, Thames, 3500","latitude":-37.138597,"longitude":175.538994,"region":"Thames","latestSnapshot":{"date":"2021-09-24T19:06:17.801+12:00","slots":{"2021-09-24":0,"2021-09-25":0,"2021-09-26":12,"2021-09-27":10,"2021-09-28":32,"2021-09-29":37,"2021-09-30":38,"2021-10-01":42}}},{"chain":"Countdown","id":21,"name":"Church Street Timaru","address":"129 Church Street, Seaview, Church St Ti, Timaru","latitude":-44.4,"longitude":171.25,"region":"Timaru"},{"chain":"Countdown","id":180,"name":"Timaru","address":"Cnr Victoria & Browne Street, Timaru Parkside, Timaru","latitude":-44.39835,"longitude":171.2401,"region":"Timaru"},{"chain":"Countdown","id":2391744,"name":"Timaru 2","address":"9 Browne Street, Parkside, Timaru","latitude":-44.4025043,"longitude":171.2540971,"region":"Timaru"},{"chain":"Countdown","id":128,"name":"Tokoroa","address":"12 - 20 O'Sullivan Drive, Tokoroa","latitude":-38.2220346,"longitude":175.8734824,"region":"Tokoroa"},{"chain":"New World","id":322,"name":"Tokoroa","address":"Bridge Street, Tokoroa, 3420","latitude":-38.218917,"longitude":175.867537,"region":"Tokoroa","latestSnapshot":{"date":"2021-09-24T19:07:54.708+12:00","slots":{"2021-09-24":0,"2021-09-25":100,"2021-09-26":117,"2021-09-27":118,"2021-09-28":120,"2021-09-29":120,"2021-09-30":120,"2021-10-01":120}}},{"chain":"Countdown","id":146,"name":"Tolaga Bay Click and Collect","address":"51 Cook Street, Tolaga Bay 4077, Tolaga Bay","latitude":-38.3731983,"longitude":178.2965414,"region":"Tolaga Bay"},{"chain":"Countdown","id":2391746,"name":"Trafalgar Park 2","address":"Cnr Paruparu Rd &, Halifax Street, Nelson, TrafalgarPark, TrafalgarPrk","latitude":null,"longitude":null,"region":"TrafalgarPrk"},{"chain":"New World","id":238,"name":"Turangi","address":"19 Ohuanga Street, Turangi, 3334","latitude":-38.991014,"longitude":175.809118,"region":"Turangi","latestSnapshot":{"date":"2021-09-24T19:07:00.636+12:00","slots":{"2021-09-24":0,"2021-09-25":17,"2021-09-26":22,"2021-09-27":24,"2021-09-28":24,"2021-09-29":30,"2021-09-30":24,"2021-10-01":24}}},{"chain":"Countdown","id":57,"name":"Maidstone","address":"Russell Street, Maidstone, Upper Hutt","latitude":-41.13827,"longitude":175.0502,"region":"Upper Hutt"},{"chain":"Countdown","id":129,"name":"Upper Hutt","address":"13-19 Queen Street, Upper Hutt","latitude":-41.1231998,"longitude":175.0708893,"region":"Upper Hutt"},{"chain":"New World","id":236,"name":"Silverstream","address":"28 Whitemans Road, Silverstream, Upper Hutt, 5019","latitude":-41.148436,"longitude":175.012536,"region":"Upper Hutt","latestSnapshot":{"date":"2021-09-24T19:06:18.796+12:00","slots":{"2021-09-24":0,"2021-09-25":85,"2021-09-26":92,"2021-09-27":95,"2021-09-28":95,"2021-09-29":95,"2021-09-30":96,"2021-10-01":96}}},{"chain":"PAK'nSAVE","id":196,"name":"Upper Hutt","address":"Gibbons Street, Upper Hutt, 5018","latitude":-41.123787,"longitude":175.066601,"region":"Upper Hutt","latestSnapshot":{"date":"2021-09-24T19:06:03.352+12:00","slots":{"2021-09-24":0,"2021-09-25":0,"2021-09-26":22,"2021-09-27":35,"2021-09-28":36,"2021-09-29":36,"2021-09-30":36,"2021-10-01":36}}},{"chain":"Countdown","id":131,"name":"Vogeltown","address":"30 Hori Street, New Plymouth, Vogeltown","latitude":-39.0787727,"longitude":174.0833057,"region":"Vogeltown"},{"chain":"Countdown","id":132,"name":"Waiheke","address":"13-19 Belgium Street, Waiheke Island, CD Waiheke, Waiheke","latitude":-36.8,"longitude":175.1,"region":"Waiheke"},{"chain":"New World","id":279,"name":"Waihi","address":"35 Kenny Street, Waihi, 3610","latitude":-37.393116,"longitude":175.839644,"region":"Waihi","latestSnapshot":{"date":"2021-09-24T19:06:48.415+12:00","slots":{"2021-09-24":0,"2021-09-25":37,"2021-09-26":44,"2021-09-27":55,"2021-09-28":56,"2021-09-29":56,"2021-09-30":56,"2021-10-01":56}}},{"chain":"Countdown","id":133,"name":"Waikanae","address":"Ngaio Road, Waikanae","latitude":-40.8753612,"longitude":175.0597518,"region":"Waikanae"},{"chain":"New World","id":244,"name":"Waikanae","address":"5 Parata Street, Waikanae, 5036","latitude":-40.874943,"longitude":175.066744,"region":"Waikanae","latestSnapshot":{"date":"2021-09-24T19:06:20.272+12:00","slots":{"2021-09-24":0,"2021-09-25":31,"2021-09-26":40,"2021-09-27":39,"2021-09-28":40,"2021-09-29":40,"2021-09-30":40,"2021-10-01":40}}},{"chain":"FreshChoice","id":339,"name":"Waimauku","address":"2/5-19 Factory Road, Huapai, Waimauku 0812","latitude":-36.7661,"longitude":174.4923,"region":"Waimauku","latestSnapshot":{"date":"2021-09-24T19:06:02.944+12:00","slots":{"2021-09-25":0,"2021-09-26":0,"2021-09-27":9,"2021-09-28":8,"2021-09-29":8,"2021-09-30":0}}},{"chain":"Countdown","id":135,"name":"Wainuiomata","address":"18 The Strand, Wainuiomata, Wainui","latitude":-41.2580054,"longitude":174.9437523,"region":"Wainui"},{"chain":"Countdown","id":136,"name":"Waipukurau","address":"Ruataniwha Street, Waipukurau","latitude":-39.9951793,"longitude":176.5541829,"region":"Waipukurau"},{"chain":"New World","id":239,"name":"Waipukurau","address":"27 Russell Street, Waipukurau, 4200","latitude":-39.99467,"longitude":176.55584,"region":"Waipukurau","latestSnapshot":{"date":"2021-09-24T19:07:08.260+12:00","slots":{"2021-09-24":0,"2021-09-25":13,"2021-09-26":0,"2021-09-27":0,"2021-09-28":21,"2021-09-29":22,"2021-09-30":23,"2021-10-01":24}}},{"chain":"New World","id":269,"name":"Wairoa","address":"41 Queen Street, Wairoa, 4108","latitude":-39.033816,"longitude":177.416989,"region":"Wairoa","latestSnapshot":{"date":"2021-09-24T19:07:41.099+12:00","slots":{"2021-09-24":0,"2021-09-25":15,"2021-09-26":15,"2021-09-27":17,"2021-09-28":17,"2021-09-29":16,"2021-09-30":17,"2021-10-01":17}}},{"chain":"Countdown","id":137,"name":"Waitangi","address":"9 Blackbridge Road, Paihia, Waitangi","latitude":-35.27025,"longitude":174.08062,"region":"Waitangi"},{"chain":"New World","id":255,"name":"Waitara","address":"42 Queen Street, Waitara, 4320","latitude":-39.000167,"longitude":174.236804,"region":"Waitara","latestSnapshot":{"date":"2021-09-24T19:06:45.940+12:00","slots":{"2021-09-24":0,"2021-09-25":20,"2021-09-26":22,"2021-09-27":24,"2021-09-28":24,"2021-09-29":24,"2021-09-30":24,"2021-10-01":24}}},{"chain":"New World","id":261,"name":"Waiuku","address":"25-49 Bowen Street, Waiuku, 2123","latitude":-37.249975,"longitude":174.727925,"region":"Waiuku","latestSnapshot":{"date":"2021-09-24T19:07:23.238+12:00","slots":{"2021-09-24":0,"2021-09-25":29,"2021-09-26":48,"2021-09-27":46,"2021-09-28":46,"2021-09-29":48,"2021-09-30":50,"2021-10-01":54}}},{"chain":"Countdown","id":139,"name":"Warkworth","address":"20-24 Neville Street, Warkworth","latitude":-36.3976839,"longitude":174.6657777,"region":"Warkworth"},{"chain":"New World","id":270,"name":"Warkworth","address":"6 Percy Street, Warkworth, 0910","latitude":-36.398709,"longitude":174.666795,"region":"Warkworth","latestSnapshot":{"date":"2021-09-24T19:06:09.337+12:00","slots":{"2021-09-24":0,"2021-09-25":3,"2021-09-26":19,"2021-09-27":22,"2021-09-28":23,"2021-09-29":26,"2021-09-30":28,"2021-10-01":34}}},{"chain":"Countdown","id":167,"name":"Aotea","address":"3 Whitford Brown Ave, Papakowhai, Aotea, Wellington","latitude":-41.1207939,"longitude":174.8669269,"region":"Wellington"},{"chain":"Countdown","id":169,"name":"Crofton Downs","address":"Churchill Drive, Crofton Downs Click and Collct, Wellington","latitude":-41.28664,"longitude":174.77557,"region":"Wellington"},{"chain":"Countdown","id":45,"name":"Johnsonville","address":"31 Johnsonville Road, Johnsonville, Wellington","latitude":-41.2265025,"longitude":174.8071297,"region":"Wellington"},{"chain":"Countdown","id":170,"name":"Johnsonville Mall","address":"Moorefield Road, Johnsonville, Moorefield Mall, Wellington","latitude":-41.221142,"longitude":174.8077879,"region":"Wellington"},{"chain":"Countdown","id":48,"name":"Karori","address":"Shopping Centre, Main Rd, Karori, Wellington","latitude":-41.28333,"longitude":174.73333,"region":"Wellington"},{"chain":"Countdown","id":171,"name":"Kilbirnie 2","address":"47 Bay Rd, Kilbirnie, Wellington","latitude":-41.3194927,"longitude":174.7946949,"region":"Wellington"},{"chain":"Countdown","id":77,"name":"Newtown","address":"3 John Street, Newtown, Wellington","latitude":-41.3074409,"longitude":174.7773789,"region":"Wellington"},{"chain":"Countdown","id":94,"name":"Petone","address":"45 Jackson St, Petone, Wellington","latitude":-41.223276,"longitude":174.8719853,"region":"Wellington"},{"chain":"Countdown","id":172,"name":"Porirua","address":"Cnr Parumoana St & Lyttleton Ave, Porirua, Wellington","latitude":-41.13333,"longitude":174.85,"region":"Wellington"},{"chain":"Countdown","id":173,"name":"Tawa","address":"3 Main Road, Tawa, Wellington","latitude":-41.175867,"longitude":174.8264391,"region":"Wellington"},{"chain":"New World","id":274,"name":"Churton Park","address":"Cnr Westchester Dr and Lakewood Av, Churton Park, Wellington, 6037","latitude":-41.203041,"longitude":174.807839,"region":"Wellington","latestSnapshot":{"date":"2021-09-24T19:05:56.482+12:00","slots":{"2021-09-24":0,"2021-09-25":0,"2021-09-26":1,"2021-09-27":23,"2021-09-28":24,"2021-09-29":24,"2021-09-30":24,"2021-10-01":24}}},{"chain":"New World","id":250,"name":"Island Bay","address":"6 Medway Street, Island Bay, Wellington, 6023","latitude":-41.334534,"longitude":174.772497,"region":"Wellington","latestSnapshot":{"date":"2021-09-24T19:07:30.622+12:00","slots":{"2021-09-24":0,"2021-09-25":5,"2021-09-26":16,"2021-09-27":18,"2021-09-28":20,"2021-09-29":19,"2021-09-30":20,"2021-10-01":20}}},{"chain":"New World","id":299,"name":"Karori","address":"236 Karori Road, Karori, Wellington, 6012","latitude":-41.284257,"longitude":174.738052,"region":"Wellington","latestSnapshot":{"date":"2021-09-24T19:06:57.034+12:00","slots":{"2021-09-24":0,"2021-09-25":6,"2021-09-26":11,"2021-09-27":12,"2021-09-28":12,"2021-09-29":12,"2021-09-30":12,"2021-10-01":12}}},{"chain":"New World","id":315,"name":"Khandallah","address":"26 Ganges Road, Khandallah, Wellington, 6035","latitude":-41.247527,"longitude":174.791469,"region":"Wellington","latestSnapshot":{"date":"2021-09-24T19:06:04.870+12:00","slots":{"2021-09-24":0,"2021-09-25":1,"2021-09-26":1,"2021-09-27":6,"2021-09-28":6,"2021-09-29":7,"2021-09-30":7,"2021-10-01":6}}},{"chain":"New World","id":243,"name":"Metro","address":"70 Willis Street, Wellington, 6011","latitude":-41.287948,"longitude":174.775268,"region":"Wellington","latestSnapshot":{"date":"2021-09-24T19:07:39.719+12:00","slots":{"2021-09-24":0,"2021-09-25":44,"2021-09-26":45,"2021-09-27":50,"2021-09-28":50,"2021-09-29":50,"2021-09-30":50,"2021-10-01":50}}},{"chain":"New World","id":307,"name":"Miramar","address":"48 Miramar Avenue, Miramar, WELLINGTON, 6022","latitude":-41.315835,"longitude":174.814635,"region":"Wellington","latestSnapshot":{"date":"2021-09-24T19:06:43.940+12:00","slots":{"2021-09-24":0,"2021-09-25":23,"2021-09-26":30,"2021-09-27":35,"2021-09-28":36,"2021-09-29":34,"2021-09-30":36,"2021-10-01":35}}},{"chain":"New World","id":254,"name":"Newlands","address":"Cnr Bracken and Newlands Road, Newlands, Wellington, 6037","latitude":-41.223472,"longitude":174.823202,"region":"Wellington","latestSnapshot":{"date":"2021-09-24T19:06:26.070+12:00","slots":{"2021-09-24":0,"2021-09-25":9,"2021-09-26":14,"2021-09-27":16,"2021-09-28":16,"2021-09-29":16,"2021-09-30":16,"2021-10-01":16}}},{"chain":"New World","id":241,"name":"Newtown","address":"195 Riddiford Street, Wellington, 6021","latitude":-41.314466,"longitude":174.780574,"region":"Wellington","latestSnapshot":{"date":"2021-09-24T19:06:00.667+12:00","slots":{"2021-09-24":0,"2021-09-25":24,"2021-09-26":3,"2021-09-27":29,"2021-09-28":30,"2021-09-29":30,"2021-09-30":30,"2021-10-01":30}}},{"chain":"New World","id":323,"name":"Porirua","address":"Lyttleton Avenue, Porirua, Wellington, 5022","latitude":-41.136386,"longitude":174.841919,"region":"Wellington","latestSnapshot":{"date":"2021-09-24T19:06:11.465+12:00","slots":{"2021-09-24":0,"2021-09-25":31,"2021-09-26":34,"2021-09-27":35,"2021-09-28":36,"2021-09-29":36,"2021-09-30":35,"2021-10-01":36}}},{"chain":"New World","id":253,"name":"Railway Station","address":"2 Bunny Street, Pipitea, Wellington, 6011","latitude":-41.279416,"longitude":174.780508,"region":"Wellington","latestSnapshot":{"date":"2021-09-24T19:07:52.610+12:00","slots":{"2021-09-24":0,"2021-09-25":24,"2021-09-26":25,"2021-09-27":55,"2021-09-28":55,"2021-09-29":55,"2021-09-30":55,"2021-10-01":55}}},{"chain":"New World","id":316,"name":"Tawa","address":"37 Oxford Terrace, Tawa, Wellington, 5028","latitude":-41.169962,"longitude":174.82611,"region":"Wellington","latestSnapshot":{"date":"2021-09-24T19:05:44.533+12:00","slots":{"2021-09-24":0,"2021-09-25":7,"2021-09-26":11,"2021-09-27":14,"2021-09-28":13,"2021-09-29":14,"2021-09-30":14,"2021-10-01":14}}},{"chain":"New World","id":281,"name":"Thorndon","address":"41 Murphy Street, Thorndon, Wellington, 6001","latitude":-41.274006,"longitude":174.778067,"region":"Wellington","latestSnapshot":{"date":"2021-09-24T19:07:11.782+12:00","slots":{"2021-09-24":0,"2021-09-25":26,"2021-09-26":46,"2021-09-27":54,"2021-09-28":58,"2021-09-29":59,"2021-09-30":59,"2021-10-01":59}}},{"chain":"New World","id":324,"name":"Wellington City","address":"279 Wakefield Street, Wellington, 6011","latitude":-41.292409,"longitude":174.784342,"region":"Wellington","latestSnapshot":{"date":"2021-09-24T19:07:52.023+12:00","slots":{"2021-09-24":0,"2021-09-25":20,"2021-09-26":35,"2021-09-27":50,"2021-09-28":50,"2021-09-29":54,"2021-09-30":54,"2021-10-01":56}}},{"chain":"New World","id":302,"name":"Whitby","address":"Discovery Drive, Whitby Village Centre, Wellington, 5024","latitude":-41.117024,"longitude":174.893023,"region":"Wellington","latestSnapshot":{"date":"2021-09-24T19:06:01.945+12:00","slots":{"2021-09-24":0,"2021-09-25":3,"2021-09-26":6,"2021-09-27":6,"2021-09-28":6,"2021-09-29":6,"2021-09-30":5,"2021-10-01":6}}},{"chain":"PAK'nSAVE","id":199,"name":"Kilbirnie","address":"76 Rongotai Road, Kilbirnie, Wellington, 6003","latitude":-41.319324,"longitude":174.79672,"region":"Wellington","latestSnapshot":{"date":"2021-09-24T19:05:48.197+12:00","slots":{"2021-09-24":0,"2021-09-25":0,"2021-09-26":12,"2021-09-27":48,"2021-09-28":50,"2021-09-29":52,"2021-09-30":53,"2021-10-01":52}}},{"chain":"PAK'nSAVE","id":203,"name":"Petone","address":"114-124 Jackson Street, Petone, Wellington, 5012","latitude":-41.224456,"longitude":174.872537,"region":"Wellington","latestSnapshot":{"date":"2021-09-24T19:06:13.540+12:00","slots":{"2021-09-24":0,"2021-09-25":0,"2021-09-26":53,"2021-09-27":58,"2021-09-28":62,"2021-09-29":59,"2021-09-30":63,"2021-10-01":63}}},{"chain":"FreshChoice","id":357,"name":"Westport","address":"18 Fonblanque Street, Westport 7825","latitude":-41.7598072,"longitude":171.6022627,"region":"Westport","latestSnapshot":{"date":"2021-09-24T19:06:36.073+12:00","slots":{"2021-09-25":13,"2021-09-26":13,"2021-09-27":13,"2021-09-28":13,"2021-09-29":13,"2021-09-30":13}}},{"chain":"Countdown","id":140,"name":"Whakatane","address":"105/125 Commerce Street, Whakatane","latitude":-37.9628746,"longitude":176.991588,"region":"Whakatane"},{"chain":"New World","id":260,"name":"Whakatane","address":"51 Kakahoroa Drive, Whakatane, 3120","latitude":-37.950929,"longitude":176.993759,"region":"Whakatane","latestSnapshot":{"date":"2021-09-24T19:06:26.720+12:00","slots":{"2021-09-24":0,"2021-09-25":11,"2021-09-26":23,"2021-09-27":40,"2021-09-28":40,"2021-09-29":41,"2021-09-30":42,"2021-10-01":42}}},{"chain":"PAK'nSAVE","id":210,"name":"Whakatane","address":"45 King Street, Whakatane, 3120","latitude":-37.961198,"longitude":176.98257,"region":"Whakatane","latestSnapshot":{"date":"2021-09-24T19:05:43.305+12:00","slots":{"2021-09-24":0,"2021-09-25":0,"2021-09-26":3,"2021-09-27":25,"2021-09-28":25,"2021-09-29":23,"2021-09-30":27,"2021-10-01":27}}},{"chain":"New World","id":249,"name":"Whangamata","address":"308 Acikin Road, Whangamata, 3620","latitude":-37.201793,"longitude":175.867411,"region":"Whangamata","latestSnapshot":{"date":"2021-09-24T19:06:55.583+12:00","slots":{"2021-09-24":0,"2021-09-25":17,"2021-09-26":22,"2021-09-27":29,"2021-09-28":30,"2021-09-29":30,"2021-09-30":30,"2021-10-01":30}}},{"chain":"Countdown","id":189,"name":"Whangamomona Hall","address":"6013 Ohura Road, Whangamomona, Whangamomona Hall","latitude":-39.1443863,"longitude":174.7351197,"region":"Whangamomona Hall"},{"chain":"Countdown","id":130,"name":"Victoria Ave","address":"433 Victoria Avenue, Victoria Ave, Whanganui","latitude":-39.9291472,"longitude":175.0451484,"region":"Whanganui"},{"chain":"Countdown","id":138,"name":"Wanganui","address":"Cnr Taupo Quay &, Wilson Street, Wanganui, Whanganui","latitude":null,"longitude":null,"region":"Whanganui"},{"chain":"New World","id":310,"name":"Wanganui","address":"374 Victoria Avenue, Wanganui, 4500","latitude":-39.926194,"longitude":175.041161,"region":"Whanganui","latestSnapshot":{"date":"2021-09-24T19:06:37.941+12:00","slots":{"2021-09-24":0,"2021-09-25":10,"2021-09-26":14,"2021-09-27":20,"2021-09-28":18,"2021-09-29":18,"2021-09-30":20,"2021-10-01":20}}},{"chain":"PAK'nSAVE","id":195,"name":"Wanganui","address":"167 Glasgow Street, Wanganui, 4500","latitude":-39.92638,"longitude":175.038901,"region":"Whanganui","latestSnapshot":{"date":"2021-09-24T19:06:35.636+12:00","slots":{"2021-09-24":0,"2021-09-25":0,"2021-09-26":47,"2021-09-27":67,"2021-09-28":60,"2021-09-29":67,"2021-09-30":67,"2021-10-01":72}}},{"chain":"SuperValue","id":468834,"name":"Wanganui","address":"47 Abbot St, Gonville, Wanganui 4501","latitude":-39.9429879,"longitude":175.0227593,"region":"Whanganui","latestSnapshot":{"date":"2021-09-24T19:05:58.496+12:00","slots":{"2021-09-25":10,"2021-09-26":10,"2021-09-27":10,"2021-09-28":10,"2021-09-29":10,"2021-09-30":10}}},{"chain":"Countdown","id":148,"name":"Regent","address":"11 Kamo Road, Regent, Whangarei","latitude":-35.7145656,"longitude":174.3225615,"region":"Whangarei"},{"chain":"Countdown","id":127,"name":"Tikipunga","address":"cnr Paramount Parade & Wanaka Street, Tikipunga, Whangarei","latitude":-35.73167,"longitude":174.32391,"region":"Whangarei"},{"chain":"Countdown","id":142,"name":"Whangarei","address":"Whangarei Retail Centre, Okara DriveCountdown Whangarei, Whangarei","latitude":-35.73167,"longitude":174.32391,"region":"Whangarei"},{"chain":"New World","id":317,"name":"Onerahi","address":"128 Onerahi Road, Whangarei, 0110","latitude":-35.755737,"longitude":174.367937,"region":"Whangarei","latestSnapshot":{"date":"2021-09-24T19:07:05.971+12:00","slots":{"2021-09-24":0,"2021-09-25":3,"2021-09-26":4,"2021-09-27":42,"2021-09-28":44,"2021-09-29":43,"2021-09-30":44,"2021-10-01":43}}},{"chain":"New World","id":318,"name":"Regent","address":"167 Bank Street, Regent, Whangarei, 0112","latitude":-35.716277,"longitude":174.321962,"region":"Whangarei","latestSnapshot":{"date":"2021-09-24T19:06:43.233+12:00","slots":{"2021-09-24":0,"2021-09-25":8,"2021-09-26":23,"2021-09-27":42,"2021-09-28":35,"2021-09-29":46,"2021-09-30":47,"2021-10-01":45}}},{"chain":"PAK'nSAVE","id":226,"name":"Whangarei","address":"Walton Street, Whangarei, 0110","latitude":-35.725958,"longitude":174.32475,"region":"Whangarei","latestSnapshot":{"date":"2021-09-24T19:05:59.072+12:00","slots":{"2021-09-24":0,"2021-09-25":0,"2021-09-26":4,"2021-09-27":11,"2021-09-28":15,"2021-09-29":27,"2021-09-30":38,"2021-10-01":48}}},{"chain":"Countdown","id":143,"name":"Whitianga","address":"24 Joan Gaskell Drive, Whitianga","latitude":-36.8347819,"longitude":175.698606,"region":"Whitianga"},{"chain":"Countdown","id":2391761,"name":"Whitianga 2","address":"24 Joan Gaskell Drive, Whitianga","latitude":-36.8347819,"longitude":175.698606,"region":"Whitianga"},{"chain":"New World","id":252,"name":"Whitianga","address":"1 Joan Gaskell Drive, Whitianga, 3510","latitude":-36.834308,"longitude":175.699435,"region":"Whitianga","latestSnapshot":{"date":"2021-09-24T19:06:06.451+12:00","slots":{"2021-09-24":0,"2021-09-25":38,"2021-09-26":46,"2021-09-27":48,"2021-09-28":47,"2021-09-29":47,"2021-09-30":48,"2021-10-01":48}}}]